team,team_id,mascot,nickname,abbreviation,display_name,short_name,logo,logo_dark,lng,lat,conference,color,color2,year,rk,conf,w_l,adj_em,adj_o,adj_o_rk,adj_d,adj_d_rk,adj_t,adj_t_rk,luck,luck_rk,sos_adj_em,sos_adj_em_rk,sos_opp_o,sos_opp_o_rk,sos_opp_d,sos_opp_d_rk,ncsos_adj_em,ncsos_adj_em_rk,ncaa_seed
Abilene Christian,2000,Wildcats,Abil Christian,ACU,Abilene Christian Wildcats,Abil Christian,https://a.espncdn.com/i/teamlogos/ncaa/500/2000.png,https://a.espncdn.com/i/teamlogos/ncaa/500-dark/2000.png,-99.74385,32.37495,Southland Conference[a],#4e2683,#ebebeb,2021,84,Slnd,24-5,10.11,101.7,184,91.6,26,69.3,115,0.009,150,-5.43,298,99.4,287,104.8,300,4.93,137,14
Air Force,2005,Falcons,Air Force,AFA,Air Force Falcons,Air Force,https://a.espncdn.com/i/teamlogos/ncaa/500/2005.png,https://a.espncdn.com/i/teamlogos/ncaa/500-dark/2005.png,-104.82136,38.83388,Mountain West Conference,#004a7b,#ffffff,2021,332,MWC,5-20,-16.51,94.4,302,110.9,326,62.8,349,0.028,111,4.35,132,104.6,138,100.3,140,-2.18,253,NA
Akron,2006,Zips,Akron,AKR,Akron Zips,Akron,https://a.espncdn.com/i/teamlogos/ncaa/500/2006.png,https://a.espncdn.com/i/teamlogos/ncaa/500-dark/2006.png,-81.72597,41.04795,Mid-American Conference,#00285e,#84754e,2021,112,MAC,15-8,7.14,108.6,73,101.5,159,68.5,153,-0.001,183,4.26,134,105.8,104,101.5,159,20.9,7,NA
Alabama,333,Crimson Tide,Alabama,ALA,Alabama Crimson Tide,Alabama,https://a.espncdn.com/i/teamlogos/ncaa/500/333.png,https://a.espncdn.com/i/teamlogos/ncaa/500-dark/333.png,-87.56917,33.20984,Southeastern Conference,#690014,#f1f2f3,2021,9,SEC,26-7,25.09,112.9,30,87.8,3,73.3,11,0.02,131,14.8,33,110.1,35,95.3,41,9.45,71,2
Alabama A&M,2010,Bulldogs,Alabama A&M,AAMU,Alabama A&M Bulldogs,Alabama A&M,https://a.espncdn.com/i/teamlogos/ncaa/500/2010.png,https://a.espncdn.com/i/teamlogos/ncaa/500-dark/2010.png,-86.58594,34.7304,Southwestern Athletic Conference,#790000,#ffffff,2021,348,SWAC,6-9,-21.04,84.8,354,105.8,250,67.5,209,0.018,134,-11.82,343,93.6,344,105.4,321,-5.52,291,NA
Alabama State,2011,Hornets,Alabama State,ALST,Alabama State Hornets,Alabama State,https://a.espncdn.com/i/teamlogos/ncaa/500/2011.png,https://a.espncdn.com/i/teamlogos/ncaa/500-dark/2011.png,-86.29997,32.36681,Southwestern Athletic Conference,#e9a900,#0a0a0a,NA,NA,NA,NA,NA,NA,NA,NA,NA,NA,NA,NA,NA,NA,NA,NA,NA,NA,NA,NA,NA,NA
Albany,399,Great Danes,Albany,ALB,Albany Great Danes,Albany,https://a.espncdn.com/i/teamlogos/ncaa/500/399.png,https://a.espncdn.com/i/teamlogos/ncaa/500-dark/399.png,-73.75623,42.65258,America East Conference,#3D2777,#ffffff,2021,240,AE,7-9,-6.91,97.3,263,104.2,211,69.6,108,-0.079,322,-4.5,280,98.9,297,103.4,236,-3.88,270,NA
Alcorn State,2016,Braves,Alcorn State,ALCN,Alcorn State Braves,Alcorn State,https://a.espncdn.com/i/teamlogos/ncaa/500/2016.png,https://a.espncdn.com/i/teamlogos/ncaa/500-dark/2016.png,-91.13155,31.8669,Southwestern Athletic Conference,#4b0058,#46166a,NA,NA,NA,NA,NA,NA,NA,NA,NA,NA,NA,NA,NA,NA,NA,NA,NA,NA,NA,NA,NA,NA
American,44,Eagles,American,AMER,American Eagles,American,https://a.espncdn.com/i/teamlogos/ncaa/500/44.png,https://a.espncdn.com/i/teamlogos/ncaa/500-dark/44.png,-77.03637,38.89511,Patriot League,#c41130,#c8102e,2021,267,Pat,4-6,-9.74,96.5,277,106.2,262,67.4,215,0.065,47,-1.53,213,101,239,102.5,200,-99,331,NA
Appalachian State,2026,Mountaineers,Appalachian St,APP,Appalachian State Mountaineers,Appalachian St,https://a.espncdn.com/i/teamlogos/ncaa/500/2026.png,https://a.espncdn.com/i/teamlogos/ncaa/500-dark/2026.png,-81.68039,36.21457,Sun Belt Conference,#000000,#ffcd00,NA,NA,NA,NA,NA,NA,NA,NA,NA,NA,NA,NA,NA,NA,NA,NA,NA,NA,NA,NA,NA,NA
Arizona,12,Wildcats,Arizona,ARIZ,Arizona Wildcats,Arizona,https://a.espncdn.com/i/teamlogos/ncaa/500/12.png,https://a.espncdn.com/i/teamlogos/ncaa/500-dark/12.png,-110.94594,32.2405,Pac-12 Conference,#002449,#00205b,2021,29,P12,17-9,19.92,115.6,15,95.7,59,67.7,198,-0.017,220,13.38,51,109.3,52,95.9,56,-4.01,271,NA
Arizona State,9,Sun Devils,Arizona State,ASU,Arizona State Sun Devils,Arizona State,https://a.espncdn.com/i/teamlogos/ncaa/500/9.png,https://a.espncdn.com/i/teamlogos/ncaa/500-dark/9.png,-111.9355,33.41728,Pac-12 Conference,#942139,#f1f2f3,NA,NA,NA,NA,NA,NA,NA,NA,NA,NA,NA,NA,NA,NA,NA,NA,NA,NA,NA,NA,NA,NA
Arkansas,8,Razorbacks,Arkansas,ARK,Arkansas Razorbacks,Arkansas,https://a.espncdn.com/i/teamlogos/ncaa/500/8.png,https://a.espncdn.com/i/teamlogos/ncaa/500-dark/8.png,-94.18112,36.06167,Southeastern Conference,#9c1831,#000000,2021,18,SEC,25-7,21.56,111.1,43,89.6,10,72.6,19,0.064,51,12.69,63,109.4,49,96.7,73,-4.09,272,3
Arkansas State,2032,Red Wolves,Arkansas State,ARST,Arkansas State Red Wolves,Arkansas State,https://a.espncdn.com/i/teamlogos/ncaa/500/2032.png,https://a.espncdn.com/i/teamlogos/ncaa/500-dark/2032.png,-90.66648,35.80838,Sun Belt Conference,#e81018,#000000,NA,NA,NA,NA,NA,NA,NA,NA,NA,NA,NA,NA,NA,NA,NA,NA,NA,NA,NA,NA,NA,NA
Arkansas-Pine Bluff,2029,Golden Lions,Ark-Pine Bluff,UAPB,Arkansas-Pine Bluff Golden Lions,Ark-Pine Bluff,https://a.espncdn.com/i/teamlogos/ncaa/500/2029.png,https://a.espncdn.com/i/teamlogos/ncaa/500-dark/2029.png,-92.01958,34.24232,Southwestern Athletic Conference,#e0aa0f,#eaaa00,NA,NA,NA,NA,NA,NA,NA,NA,NA,NA,NA,NA,NA,NA,NA,NA,NA,NA,NA,NA,NA,NA
Army,349,Black Knights,Army,ARMY,Army Black Knights,Army,https://a.espncdn.com/i/teamlogos/ncaa/500/349.png,https://a.espncdn.com/i/teamlogos/ncaa/500-dark/349.png,-74.02831,41.35352,Patriot League[v],#ce9c00,#231f20,2021,197,Pat,12-10,-3.47,98.1,250,101.6,161,68.4,157,0.034,98,-1.17,208,103.3,172,104.5,286,2.78,171,NA
Auburn,2,Tigers,Auburn,AUB,Auburn Tigers,Auburn,https://a.espncdn.com/i/teamlogos/ncaa/500/2.png,https://a.espncdn.com/i/teamlogos/ncaa/500-dark/2.png,-85.48078,32.60986,Southeastern Conference,#03244d,#f1f2f3,2021,60,SEC,13-14,13.2,111.6,38,98.4,103,71,54,-0.044,275,14.54,37,109.3,53,94.7,24,6.37,109,NA
Austin Peay,2046,Governors,Austin Peay,APSU,Austin Peay Governors,Austin Peay,https://a.espncdn.com/i/teamlogos/ncaa/500/2046.png,https://a.espncdn.com/i/teamlogos/ncaa/500-dark/2046.png,-87.35408,36.53332,Ohio Valley Conference,#8e0b0b,#000000,2021,215,OVC,14-13,-5.04,104,137,109,302,66.8,249,-0.071,315,-5.33,296,98.6,307,103.9,258,-1.46,246,NA
Ball State,2050,Cardinals,Ball State,BALL,Ball State Cardinals,Ball State,https://a.espncdn.com/i/teamlogos/ncaa/500/2050.png,https://a.espncdn.com/i/teamlogos/ncaa/500-dark/2050.png,-85.41247,40.19949,Mid-American Conference,#DA0000,#ffffff,NA,NA,NA,NA,NA,NA,NA,NA,NA,NA,NA,NA,NA,NA,NA,NA,NA,NA,NA,NA,NA,NA
Baylor,239,Bears,Baylor,BAY,Baylor Bears,Baylor,https://a.espncdn.com/i/teamlogos/ncaa/500/239.png,https://a.espncdn.com/i/teamlogos/ncaa/500-dark/239.png,-97.07924,31.63432,Big 12 Conference,#004834,#ffb81c,2021,2,B12,28-2,33.87,125,2,91.1,22,67.4,213,0.046,80,13.25,54,108.7,64,95.5,44,-2.83,258,1
Belmont,2057,Bruins,Belmont,BEL,Belmont Bruins,Belmont,https://a.espncdn.com/i/teamlogos/ncaa/500/2057.png,https://a.espncdn.com/i/teamlogos/ncaa/500-dark/2057.png,-86.78694,36.16339,Ohio Valley Conference,#182142,#c9262d,2021,110,OVC,26-4,7.43,109.4,64,102,170,70.7,64,0.05,69,-5.84,307,98.9,298,104.8,299,-5.87,296,NA
Binghamton,2066,Bearcats,Binghamton,BING,Binghamton Bearcats,Binghamton,https://a.espncdn.com/i/teamlogos/ncaa/500/2066.png,https://a.espncdn.com/i/teamlogos/ncaa/500-dark/2066.png,-75.96825,42.0898,America East Conference,#00614A,#f0f0f0,2021,325,AE,4-14,-15.31,97.2,266,112.5,340,65.9,290,-0.095,336,-4.07,272,98.4,309,102.4,194,-8.19,308,NA
Boise State,68,Broncos,Boise State,BSU,Boise State Broncos,Boise State,https://a.espncdn.com/i/teamlogos/ncaa/500/68.png,https://a.espncdn.com/i/teamlogos/ncaa/500-dark/68.png,-115.93428,43.90573,Mountain West Conference,#09347A,#d8d9da,NA,NA,NA,NA,NA,NA,NA,NA,NA,NA,NA,NA,NA,NA,NA,NA,NA,NA,NA,NA,NA,NA
Boston College,103,Eagles,Boston College,BC,Boston College Eagles,Boston College,https://a.espncdn.com/i/teamlogos/ncaa/500/103.png,https://a.espncdn.com/i/teamlogos/ncaa/500-dark/103.png,-70.82005,42.58898,Atlantic Coast Conference,#88001a,#a39161,2021,148,ACC,4-16,1.47,105.1,123,103.6,200,70.9,58,-0.097,337,13.86,46,110.5,28,96.7,71,12.89,38,NA
Boston University,104,Terriers,Boston U,BU,Boston University Terriers,Boston U,https://a.espncdn.com/i/teamlogos/ncaa/500/104.png,https://a.espncdn.com/i/teamlogos/ncaa/500-dark/104.png,-71.03838,42.31343,Patriot League,#cc0000,#ffffff,2021,260,Pat,7-11,-8.93,100.3,210,109.3,307,65.6,302,0.008,152,-2.16,226,102.5,195,104.6,293,-99,331,NA
Bowling Green,189,Falcons,Bowling Green,BGSU,Bowling Green Falcons,Bowling Green,https://a.espncdn.com/i/teamlogos/ncaa/500/189.png,https://a.espncdn.com/i/teamlogos/ncaa/500-dark/189.png,-83.64625,41.45785,Mid-American Conference,#2b1000,#492000,2021,130,MAC,14-12,3.62,105.5,116,101.9,168,69.8,96,-0.037,260,3.46,143,105.5,113,102,178,1.52,197,NA
Bradley,71,Braves,Bradley,BRAD,Bradley Braves,Bradley,https://a.espncdn.com/i/teamlogos/ncaa/500/71.png,https://a.espncdn.com/i/teamlogos/ncaa/500-dark/71.png,-89.63121,40.74531,Missouri Valley Conference,#b70002,#c0c0c0,2021,146,MVC,12-16,1.87,103.5,149,101.7,162,65.9,288,-0.086,325,5.85,118,105.5,112,99.7,129,6.06,114,NA
Brown,225,Bears,Brown,BRWN,Brown Bears,Brown,https://a.espncdn.com/i/teamlogos/ncaa/500/225.png,https://a.espncdn.com/i/teamlogos/ncaa/500-dark/225.png,-71.49978,41.75038,Ivy League,#411e09,#949300,2021,249,Ivy,0-0,-7.7,95.2,288,102.9,189,69.7,100,0,173,-99,348,0,348,200,348,-99,331,NA
Bryant,2803,Bulldogs,Bryant,BRY,Bryant Bulldogs,Bryant,https://a.espncdn.com/i/teamlogos/ncaa/500/2803.png,https://a.espncdn.com/i/teamlogos/ncaa/500-dark/2803.png,-71.53867,41.9201,Northeast Conference,#000000,#9f8343,2021,185,NEC,15-7,-1.5,103.2,160,104.7,223,74,6,-0.044,273,-7.65,330,98.2,314,105.9,328,4.63,143,NA
Bucknell,2083,Bison,Bucknell,BUCK,Bucknell Bison,Bucknell,https://a.espncdn.com/i/teamlogos/ncaa/500/2083.png,https://a.espncdn.com/i/teamlogos/ncaa/500-dark/2083.png,-76.88413,40.95536,Patriot League,#000060,#00316e,2021,276,Pat,5-7,-10.71,97.3,262,108,288,71.8,34,-0.018,224,-6.93,319,99.8,273,106.7,341,-99,331,NA
Buffalo,2084,Bulls,Buffalo,BUFF,Buffalo Bulls,Buffalo,https://a.espncdn.com/i/teamlogos/ncaa/500/2084.png,https://a.espncdn.com/i/teamlogos/ncaa/500-dark/2084.png,-78.87837,42.88645,Mid-American Conference,#041A9B,#ebebeb,2021,77,MAC,16-9,11.3,107.4,95,96.1,67,73.1,16,-0.098,339,3.27,145,105.6,111,102.3,192,2.4,182,4
Butler,2086,Bulldogs,Butler,BUT,Butler Bulldogs,Butler,https://a.espncdn.com/i/teamlogos/ncaa/500/2086.png,https://a.espncdn.com/i/teamlogos/ncaa/500-dark/2086.png,-86.18527,39.77643,Big East Conference[c],#0d1361,#00a3e0,2021,120,BE,10-15,5.34,102.7,164,97.4,86,64.6,326,0.069,45,14.5,39,109.9,38,95.4,42,-0.56,227,NA
BYU,252,Cougars,BYU,BYU,BYU Cougars,BYU,https://a.espncdn.com/i/teamlogos/ncaa/500/252.png,https://a.espncdn.com/i/teamlogos/ncaa/500-dark/252.png,-111.65853,40.23384,West Coast Conference,#001E4C,#ffffff,2021,20,WCC,20-7,21.12,113.7,23,92.5,30,67.6,206,0.037,91,12.31,65,109.1,57,96.8,76,10.05,65,6
Cal Poly,13,Mustangs,Cal Poly,CP,Cal Poly Mustangs,Cal Poly,https://a.espncdn.com/i/teamlogos/ncaa/500/13.png,https://a.espncdn.com/i/teamlogos/ncaa/500-dark/13.png,-120.66004,35.30059,Big West Conference[d],#1E4D2B,#eed897,2021,329,BW,4-20,-15.85,90.1,343,105.9,253,66.8,248,0.015,141,2.76,156,103,181,100.2,139,-0.1,216,NA
California,25,Golden Bears,California,CAL,California Golden Bears,California,https://a.espncdn.com/i/teamlogos/ncaa/500/25.png,https://a.espncdn.com/i/teamlogos/ncaa/500-dark/25.png,-122.25975,37.87215,Pac-12 Conference,#031522,#ffc423,2021,114,P12,9-20,6.43,105.5,119,99,115,64.7,322,-0.067,308,15.58,26,110.7,23,95.1,32,3.18,166,NA
Campbell,2097,Fighting Camels,Campbell,CAM,Campbell Fighting Camels,Campbell,https://a.espncdn.com/i/teamlogos/ncaa/500/2097.png,https://a.espncdn.com/i/teamlogos/ncaa/500-dark/2097.png,-78.7403,35.40988,Big South Conference,#000000,#000000,2021,211,BSth,17-10,-4.64,102.9,162,107.6,281,63.9,338,0.064,49,-5.23,293,99,292,104.3,271,-1.81,249,NA
Canisius,2099,Golden Griffins,Canisius,CAN,Canisius Golden Griffins,Canisius,https://a.espncdn.com/i/teamlogos/ncaa/500/2099.png,https://a.espncdn.com/i/teamlogos/ncaa/500-dark/2099.png,-78.87837,42.88645,Metro Atlantic Athletic Conference,#004a81,#dda50f,2021,251,MAAC,7-6,-7.82,99.1,235,107,273,70.6,74,0.058,56,-5.54,301,96,339,101.6,161,-99,331,NA
Central Arkansas,2110,Bears,Cent Arkansas,UCA,Central Arkansas Bears,Cent Arkansas,https://a.espncdn.com/i/teamlogos/ncaa/500/2110.png,https://a.espncdn.com/i/teamlogos/ncaa/500-dark/2110.png,-92.4571,35.07925,Southland Conference[e],#a7a9ac,#8e959a,2021,331,Slnd,5-19,-16.26,97.6,258,113.8,351,70.9,61,-0.018,223,1.85,167,102.8,186,101,144,21.14,6,NA
Central Connecticut,2115,Blue Devils,Cent Conn St,CCSU,Central Connecticut Blue Devils,Cent Conn St,https://a.espncdn.com/i/teamlogos/ncaa/500/2115.png,https://a.espncdn.com/i/teamlogos/ncaa/500-dark/2115.png,-72.7867,41.66125,Northeast Conference,#1B49A2,#d1d5d8,2021,345,NEC,5-16,-19.46,92.5,320,112,336,70.3,83,0.003,164,-6.27,315,99,294,105.2,312,7.82,94,NA
Central Michigan,2117,Chippewas,Cent Michigan,CMU,Central Michigan Chippewas,Cent Michigan,https://a.espncdn.com/i/teamlogos/ncaa/500/2117.png,https://a.espncdn.com/i/teamlogos/ncaa/500-dark/2117.png,-84.76917,43.58028,Mid-American Conference,#6a0032,#ffffff,2021,281,MAC,7-16,-11.04,100.2,215,111.3,330,72.1,29,-0.046,276,1.08,177,103.7,164,102.6,205,-6.06,298,NA
Charleston Southern,2127,Buccaneers,Charleston So,CHSO,Charleston Southern Buccaneers,Charleston So,https://a.espncdn.com/i/teamlogos/ncaa/500/2127.png,https://a.espncdn.com/i/teamlogos/ncaa/500-dark/2127.png,-80.0725,32.98129,Big South Conference,#2e3192,#ded090,2021,339,BSth,3-18,-18.49,89.8,344,108.3,292,69.6,106,-0.049,284,-3.32,249,100.8,246,104.1,266,1.74,194,NA
Charlotte,2429,49ers,Charlotte,CHAR,Charlotte 49ers,Charlotte,https://a.espncdn.com/i/teamlogos/ncaa/500/2429.png,https://a.espncdn.com/i/teamlogos/ncaa/500-dark/2429.png,-80.73201,35.30514,Conference USA,#ffffff,#cfab7a,2021,234,CUSA,9-16,-6.49,97.3,261,103.8,206,62.7,351,-0.032,251,0.99,180,102.5,194,101.5,160,-4.6,280,NA
Chattanooga,236,Mocs,Chattanooga,UTC,Chattanooga Mocs,Chattanooga,https://a.espncdn.com/i/teamlogos/ncaa/500/236.png,https://a.espncdn.com/i/teamlogos/ncaa/500-dark/236.png,-85.30024,35.04619,Southern Conference,#00386b,#dca71d,2021,156,SC,18-8,0.71,103,161,102.3,178,66.4,269,0.102,16,0.68,185,103.3,174,102.6,208,-3.51,266,NA
Chicago State,2130,Cougars,Chicago State,CHIC,Chicago State Cougars,Chicago State,https://a.espncdn.com/i/teamlogos/ncaa/500/2130.png,https://a.espncdn.com/i/teamlogos/ncaa/500-dark/2130.png,-87.64922,41.87198,Western Athletic Conference[f],#006700,#000000,NA,NA,NA,NA,NA,NA,NA,NA,NA,NA,NA,NA,NA,NA,NA,NA,NA,NA,NA,NA,NA,NA
Cincinnati,2132,Bearcats,Cincinnati,CIN,Cincinnati Bearcats,Cincinnati,https://a.espncdn.com/i/teamlogos/ncaa/500/2132.png,https://a.espncdn.com/i/teamlogos/ncaa/500-dark/2132.png,-84.51633,39.13145,American Athletic Conference,#000000,#717073,2021,116,Amer,12-11,6.06,103.6,148,97.5,90,70.7,66,0.115,11,11.11,73,107.3,82,96.2,63,9.57,70,NA
Clemson,228,Tigers,Clemson,CLEM,Clemson Tigers,Clemson,https://a.espncdn.com/i/teamlogos/ncaa/500/228.png,https://a.espncdn.com/i/teamlogos/ncaa/500-dark/228.png,-82.83875,34.67788,Atlantic Coast Conference,#F66733,#522d80,2021,45,ACC,16-8,15.48,106.4,107,90.9,19,64,337,0.1,18,14.39,41,109.7,43,95.3,38,11.6,46,7
Cleveland State,325,Vikings,Cleveland State,CLEV,Cleveland State Vikings,Cleveland State,https://a.espncdn.com/i/teamlogos/ncaa/500/325.png,https://a.espncdn.com/i/teamlogos/ncaa/500-dark/325.png,-81.61846,41.43783,Horizon League,#006633,#231f20,NA,NA,NA,NA,NA,NA,NA,NA,NA,NA,NA,NA,NA,NA,NA,NA,NA,NA,NA,NA,NA,NA
Coastal Carolina,324,Chanticleers,C. Carolina,CCAR,Coastal Carolina Chanticleers,C. Carolina,https://a.espncdn.com/i/teamlogos/ncaa/500/324.png,https://a.espncdn.com/i/teamlogos/ncaa/500-dark/324.png,-79.0132,33.7938,Sun Belt Conference,#007073,#876447,2021,179,SB,18-8,-0.86,99.3,231,100.2,130,71.1,51,-0.02,226,-5.02,289,99.8,274,104.8,301,-13.04,322,NA
Colgate,2142,Raiders,Colgate,COLG,Colgate Raiders,Colgate,https://a.espncdn.com/i/teamlogos/ncaa/500/2142.png,https://a.espncdn.com/i/teamlogos/ncaa/500-dark/2142.png,-73.94833,40.82583,Patriot League,#8B011D,#231f20,2021,89,Pat,14-2,9.25,110.3,53,101,148,72.2,26,0.048,74,-5.8,305,99.6,282,105.4,316,-99,331,14
Colorado,38,Buffaloes,Colorado,COLO,Colorado Buffaloes,Colorado,https://a.espncdn.com/i/teamlogos/ncaa/500/38.png,https://a.espncdn.com/i/teamlogos/ncaa/500-dark/38.png,-105.26706,40.00442,Pac-12 Conference,#d1c57e,#ffd200,2021,8,P12,23-9,25.1,116.3,13,91.2,23,66.1,276,-0.025,237,15.43,28,110.3,32,94.9,31,3.82,157,5
Colorado State,36,Rams,Colorado State,CSU,Colorado State Rams,Colorado State,https://a.espncdn.com/i/teamlogos/ncaa/500/36.png,https://a.espncdn.com/i/teamlogos/ncaa/500-dark/36.png,-104.99307,40.5342,Mountain West Conference,#004537,#ffc425,NA,NA,NA,NA,NA,NA,NA,NA,NA,NA,NA,NA,NA,NA,NA,NA,NA,NA,NA,NA,NA,NA
Columbia,171,Lions,Columbia,CLMB,Columbia Lions,Columbia,https://a.espncdn.com/i/teamlogos/ncaa/500/171.png,https://a.espncdn.com/i/teamlogos/ncaa/500-dark/171.png,-74.00597,40.71427,Ivy League,#174785,#004b85,2021,286,Ivy,0-0,-11.25,94.7,298,105.9,255,68.9,137,0,173,-99,348,0,348,200,348,-99,331,NA
Coppin State,2154,Eagles,Coppin State,COPP,Coppin State Eagles,Coppin State,https://a.espncdn.com/i/teamlogos/ncaa/500/2154.png,https://a.espncdn.com/i/teamlogos/ncaa/500-dark/2154.png,-76.71168,39.25543,Mid-Eastern Athletic Conference,#2e3192,#ffd204,NA,NA,NA,NA,NA,NA,NA,NA,NA,NA,NA,NA,NA,NA,NA,NA,NA,NA,NA,NA,NA,NA
Cornell,172,Big Red,Cornell,COR,Cornell Big Red,Cornell,https://a.espncdn.com/i/teamlogos/ncaa/500/172.png,https://a.espncdn.com/i/teamlogos/ncaa/500-dark/172.png,-76.483,42.44702,Ivy League,#d60027,#101010,2021,220,Ivy,0-0,-5.2,101.3,190,106.5,266,66.8,246,0,173,-99,348,0,348,200,348,-99,331,NA
Creighton,156,Bluejays,Creighton,CREI,Creighton Bluejays,Creighton,https://a.espncdn.com/i/teamlogos/ncaa/500/156.png,https://a.espncdn.com/i/teamlogos/ncaa/500-dark/156.png,-96.00502,41.25778,Big East Conference,#13299e,#00235d,2021,22,BE,22-9,20.59,113.4,25,92.8,32,68.7,144,0.017,137,13.19,55,108.8,63,95.6,49,-0.73,230,5
Dartmouth,159,Big Green,Dartmouth,DART,Dartmouth Big Green,Dartmouth,https://a.espncdn.com/i/teamlogos/ncaa/500/159.png,https://a.espncdn.com/i/teamlogos/ncaa/500-dark/159.png,-72.28641,43.70035,Ivy League,#005730,#000000,2021,275,Ivy,0-0,-10.7,94.8,292,105.5,244,66.6,259,0,173,-99,348,0,348,200,348,-99,331,NA
Davidson,2166,Wildcats,Davidson,DAV,Davidson Wildcats,Davidson,https://a.espncdn.com/i/teamlogos/ncaa/500/2166.png,https://a.espncdn.com/i/teamlogos/ncaa/500-dark/2166.png,-80.13103,35.84277,Atlantic 10 Conference[c],#000000,#e51837,2021,70,A10,13-9,12.11,113.9,20,101.8,164,62.5,353,-0.074,316,6.91,106,104.7,137,97.8,95,1.16,201,2
Dayton,2168,Flyers,Dayton,DAY,Dayton Flyers,Dayton,https://a.espncdn.com/i/teamlogos/ncaa/500/2168.png,https://a.espncdn.com/i/teamlogos/ncaa/500-dark/2168.png,-84.32543,39.85624,Atlantic 10 Conference[c],#004B8D,#ffffff,2021,87,A10,14-10,9.69,108.3,77,98.6,109,65.5,305,0.006,160,8.46,99,105.1,123,96.7,72,4.29,148,4
Delaware,48,Blue Hens,Delaware,DEL,Delaware Blue Hens,Delaware,https://a.espncdn.com/i/teamlogos/ncaa/500/48.png,https://a.espncdn.com/i/teamlogos/ncaa/500-dark/48.png,-75.75299,39.67956,Colonial Athletic Association,#033594,#e8ce31,2021,225,CAA,7-8,-6.08,97,269,103.1,193,66.5,262,-0.069,314,-4.03,269,101.9,219,105.9,330,-2.15,252,NA
Delaware State,2169,Hornets,Delaware State,DSU,Delaware State Hornets,Delaware State,https://a.espncdn.com/i/teamlogos/ncaa/500/2169.png,https://a.espncdn.com/i/teamlogos/ncaa/500-dark/2169.png,-75.52437,39.15817,Mid-Eastern Athletic Conference,#FF3630,#009cdd,NA,NA,NA,NA,NA,NA,NA,NA,NA,NA,NA,NA,NA,NA,NA,NA,NA,NA,NA,NA,NA,NA
Denver,2172,Pioneers,Denver,DEN,Denver Pioneers,Denver,https://a.espncdn.com/i/teamlogos/ncaa/500/2172.png,https://a.espncdn.com/i/teamlogos/ncaa/500-dark/2172.png,-105.00209,39.74503,The Summit League,#9c143d,#d6ba74,2021,338,Sum,2-19,-18.4,94.2,304,112.6,341,70.9,60,-0.105,343,-2.88,244,101.5,224,104.4,279,-5.27,289,NA
DePaul,305,Blue Demons,DePaul,DEP,DePaul Blue Demons,DePaul,https://a.espncdn.com/i/teamlogos/ncaa/500/305.png,https://a.espncdn.com/i/teamlogos/ncaa/500-dark/305.png,-87.64922,41.87198,Big East Conference,#2d649c,#ce1125,2021,141,BE,5-14,2.8,97.6,257,94.8,47,70.6,72,-0.048,280,13.3,52,109,59,95.7,52,-8.6,313,NA
Drake,2181,Bulldogs,Drake,DRKE,Drake Bulldogs,Drake,https://a.espncdn.com/i/teamlogos/ncaa/500/2181.png,https://a.espncdn.com/i/teamlogos/ncaa/500-dark/2181.png,-93.66067,41.62768,Missouri Valley Conference[c],#004477,#c0c0c0,2021,55,MVC,26-5,14.27,112.5,33,98.2,101,66.3,271,0.102,17,3.98,137,104.1,155,100.1,137,-8.21,309,11
Drexel,2182,Dragons,Drexel,DREX,Drexel Dragons,Drexel,https://a.espncdn.com/i/teamlogos/ncaa/500/2182.png,https://a.espncdn.com/i/teamlogos/ncaa/500-dark/2182.png,-75.19296,39.954,Colonial Athletic Association,#020260,#ffd65a,2021,158,CAA,12-8,0.67,106.5,104,105.8,248,63.9,340,0.007,158,-2.28,227,101.2,229,103.5,241,-5.75,295,16
Duke,150,Blue Devils,Duke,DUKE,Duke Blue Devils,Duke,https://a.espncdn.com/i/teamlogos/ncaa/500/150.png,https://a.espncdn.com/i/teamlogos/ncaa/500-dark/150.png,-78.94001,36.00153,Atlantic Coast Conference,#001A57,#f1f2f3,2021,36,ACC,13-11,17.56,114.5,18,97,79,68.5,152,-0.109,347,12.27,67,109.1,58,96.8,77,5.59,127,NA
Duquesne,2184,Dukes,Duquesne,DUQ,Duquesne Dukes,Duquesne,https://a.espncdn.com/i/teamlogos/ncaa/500/2184.png,https://a.espncdn.com/i/teamlogos/ncaa/500-dark/2184.png,-79.985,40.43615,Atlantic 10 Conference[g],#002D62,#b90b2e,2021,126,A10,9-9,4.74,101.7,183,97,80,69,135,0.007,159,6.63,107,105,124,98.4,107,2.39,183,NA
East Carolina,151,Pirates,East Carolina,ECU,East Carolina Pirates,East Carolina,https://a.espncdn.com/i/teamlogos/ncaa/500/151.png,https://a.espncdn.com/i/teamlogos/ncaa/500-dark/151.png,-77.3672,35.5974,American Athletic Conference,#4b1869,#f0907b,2021,155,Amer,8-11,0.74,99.3,232,98.6,107,67.9,187,-0.016,218,6.22,114,104.7,135,98.5,109,-6.89,303,NA
East Tennessee State,2193,Buccaneers,ETSU,ETSU,East Tennessee State Buccaneers,ETSU,https://a.espncdn.com/i/teamlogos/ncaa/500/2193.png,https://a.espncdn.com/i/teamlogos/ncaa/500-dark/2193.png,-82.36903,36.30344,Southern Conference,#002d61,#ffc423,NA,NA,NA,NA,NA,NA,NA,NA,NA,NA,NA,NA,NA,NA,NA,NA,NA,NA,NA,NA,NA,NA
Eastern Illinois,2197,Panthers,E Illinois,EIU,Eastern Illinois Panthers,E Illinois,https://a.espncdn.com/i/teamlogos/ncaa/500/2197.png,https://a.espncdn.com/i/teamlogos/ncaa/500-dark/2197.png,-88.1756,39.48059,Ohio Valley Conference,#000000,#bebab9,2021,311,OVC,9-18,-13.22,95.5,286,108.7,298,68.9,138,-0.004,189,-3.67,263,100.9,242,104.6,290,2.66,175,NA
Eastern Kentucky,2198,Colonels,E Kentucky,EKU,Eastern Kentucky Colonels,E Kentucky,https://a.espncdn.com/i/teamlogos/ncaa/500/2198.png,https://a.espncdn.com/i/teamlogos/ncaa/500-dark/2198.png,-84.3016,37.73814,Ohio Valley Conference[e],#660819,#f0f0f0,2021,174,OVC,22-7,-0.56,101,197,101.5,160,74.8,2,0.085,26,-5.34,297,99.8,272,105.2,309,-7.97,307,NA
Eastern Michigan,2199,Eagles,E Michigan,EMU,Eastern Michigan Eagles,E Michigan,https://a.espncdn.com/i/teamlogos/ncaa/500/2199.png,https://a.espncdn.com/i/teamlogos/ncaa/500-dark/2199.png,-83.62272,42.24698,Mid-American Conference,#00331b,#f0f0f0,2021,289,MAC,6-12,-11.42,97.1,268,108.5,296,68.1,178,-0.039,264,5.33,124,106.9,87,101.6,164,18.07,13,NA
Eastern Washington,331,Eagles,E Washington,EWU,Eastern Washington Eagles,E Washington,https://a.espncdn.com/i/teamlogos/ncaa/500/331.png,https://a.espncdn.com/i/teamlogos/ncaa/500-dark/331.png,-117.58298,47.48989,Big Sky Conference,#a10022,#abb4bc,2021,105,BSky,16-8,8.19,109.5,62,101.3,156,72.2,27,-0.085,323,-0.43,195,102,212,102.4,195,21.28,5,14
Elon,2210,Phoenix,Elon,ELON,Elon Phoenix,Elon,https://a.espncdn.com/i/teamlogos/ncaa/500/2210.png,https://a.espncdn.com/i/teamlogos/ncaa/500-dark/2210.png,-79.50784,36.10466,Colonial Athletic Association,#020303,#b59a57,2021,205,CAA,10-9,-4.14,96.7,274,100.9,142,66.5,265,0.014,142,-1.59,215,102.1,206,103.7,249,-4.32,275,NA
Evansville,339,Purple Aces,Evansville,EVAN,Evansville Purple Aces,Evansville,https://a.espncdn.com/i/teamlogos/ncaa/500/339.png,https://a.espncdn.com/i/teamlogos/ncaa/500-dark/339.png,-87.53168,37.97171,Missouri Valley Conference,#663399,#ef6f00,2021,204,MVC,9-16,-4.12,105.8,114,109.9,315,62,355,0.011,146,4,136,103.5,170,99.5,125,-4.4,276,NA
Fairfield,2217,Stags,Fairfield,FAIR,Fairfield Stags,Fairfield,https://a.espncdn.com/i/teamlogos/ncaa/500/2217.png,https://a.espncdn.com/i/teamlogos/ncaa/500-dark/2217.png,-73.29595,41.20093,Metro Atlantic Athletic Conference,#000000,#ebebeb,2021,309,MAAC,10-17,-12.92,94.9,290,107.8,284,64.3,333,0.005,163,-5.31,295,96.9,331,102.2,186,-0.56,226,NA
Fairleigh Dickinson,161,Knights,Fair. Dickinson,FDU,Fairleigh Dickinson Knights,Fair. Dickinson,https://a.espncdn.com/i/teamlogos/ncaa/500/161.png,https://a.espncdn.com/i/teamlogos/ncaa/500-dark/161.png,-74.0282,40.89843,Northeast Conference,#00449C,#a80532,2021,299,NEC,9-15,-12.39,100.7,202,113.1,345,70.6,68,0.017,138,-6.04,309,98.9,299,104.9,304,3.84,156,NA
Florida,57,Gators,Florida,FLA,Florida Gators,Florida,https://a.espncdn.com/i/teamlogos/ncaa/500/57.png,https://a.espncdn.com/i/teamlogos/ncaa/500-dark/57.png,-82.3544,29.71163,Southeastern Conference,#0021A5,#0021a5,2021,41,SEC,15-10,16.95,111,44,94.1,41,68.3,167,-0.004,188,14.72,36,109.9,36,95.2,35,8.88,76,7
Florida A&M,50,Rattlers,Florida A&M,FAMU,Florida A&M Rattlers,Florida A&M,https://a.espncdn.com/i/teamlogos/ncaa/500/50.png,https://a.espncdn.com/i/teamlogos/ncaa/500-dark/50.png,-84.29712,30.4502,Mid-Eastern Athletic Conference[b],#F89728,#00843d,2021,277,MEAC,8-12,-10.72,90.2,341,100.9,144,68.4,161,-0.011,206,-6.24,313,98.8,302,105,307,13.05,35,NA
Florida Atlantic,2226,Owls,FAU,FAU,Florida Atlantic Owls,FAU,https://a.espncdn.com/i/teamlogos/ncaa/500/2226.png,https://a.espncdn.com/i/teamlogos/ncaa/500-dark/2226.png,-80.1035,26.3731,Conference USA,#004B85,#bb2f4c,2021,181,CUSA,13-10,-1.14,101.9,174,103.1,192,68.1,177,-0.098,338,-1.5,212,101.2,232,102.7,209,-0.22,218,NA
Florida State,52,Seminoles,Florida State,FSU,Florida State Seminoles,Florida State,https://a.espncdn.com/i/teamlogos/ncaa/500/52.png,https://a.espncdn.com/i/teamlogos/ncaa/500-dark/52.png,-84.29712,30.4502,Atlantic Coast Conference,#782F40,#ceb888,NA,NA,NA,NA,NA,NA,NA,NA,NA,NA,NA,NA,NA,NA,NA,NA,NA,NA,NA,NA,NA,NA
Fordham,2230,Rams,Fordham,FOR,Fordham Rams,Fordham,https://a.espncdn.com/i/teamlogos/ncaa/500/2230.png,https://a.espncdn.com/i/teamlogos/ncaa/500-dark/2230.png,-73.87833,40.85139,Atlantic 10 Conference[h],#830032,#909090,2021,310,A10,2-12,-12.93,86.3,352,99.3,119,63.7,343,0.018,136,6.28,111,105.8,103,99.5,126,-99,331,NA
Fresno State,278,Bulldogs,Fresno State,FRES,Fresno State Bulldogs,Fresno State,https://a.espncdn.com/i/teamlogos/ncaa/500/278.png,https://a.espncdn.com/i/teamlogos/ncaa/500-dark/278.png,-119.77237,36.74773,Mountain West Conference,#c41230,#231f20,NA,NA,NA,NA,NA,NA,NA,NA,NA,NA,NA,NA,NA,NA,NA,NA,NA,NA,NA,NA,NA,NA
Furman,231,Paladins,Furman,FUR,Furman Paladins,Furman,https://a.espncdn.com/i/teamlogos/ncaa/500/231.png,https://a.espncdn.com/i/teamlogos/ncaa/500-dark/231.png,-82.40179,34.84178,Southern Conference,#4A2184,#909090,2021,96,SC,16-9,8.64,109.8,57,101.1,151,67.7,200,-0.086,324,2.56,160,104.3,151,101.8,173,2.7,173,NA
George Mason,2244,Patriots,George Mason,GMU,George Mason Patriots,George Mason,https://a.espncdn.com/i/teamlogos/ncaa/500/2244.png,https://a.espncdn.com/i/teamlogos/ncaa/500-dark/2244.png,-77.30794,38.83088,Atlantic 10 Conference,#016600,#ecb010,2021,142,A10,13-9,2.73,101.1,195,98.4,102,68.1,176,0.046,77,3.26,146,104.5,144,101.2,154,-4.89,284,NA
George Washington,45,Colonials,G Washington,GW,George Washington Colonials,G Washington,https://a.espncdn.com/i/teamlogos/ncaa/500/45.png,https://a.espncdn.com/i/teamlogos/ncaa/500-dark/45.png,-77.03637,38.89511,Atlantic 10 Conference,#002843,#e8d2a1,2021,227,A10,5-12,-6.17,101.6,187,107.8,285,67.8,188,-0.094,335,0.63,187,99.9,269,99.2,119,-6.36,300,NA
Georgetown,46,Hoyas,Georgetown,GTWN,Georgetown Hoyas,Georgetown,https://a.espncdn.com/i/teamlogos/ncaa/500/46.png,https://a.espncdn.com/i/teamlogos/ncaa/500-dark/46.png,-77.03637,38.89511,Big East Conference[h],#110E42,#001c58,2021,63,BE,13-13,12.91,107.9,87,95,49,69.7,101,0.008,154,14.96,32,110.6,27,95.6,48,4.64,142,12
Georgia,61,Bulldogs,Georgia,UGA,Georgia Bulldogs,Georgia,https://a.espncdn.com/i/teamlogos/ncaa/500/61.png,https://a.espncdn.com/i/teamlogos/ncaa/500-dark/61.png,-83.37794,33.96095,Southeastern Conference,#CC0000,#000000,2021,95,SEC,14-12,8.69,107.9,86,99.2,118,73.2,13,0.048,75,12.37,64,107.9,76,95.5,45,-6.05,297,NA
Georgia Southern,290,Eagles,GA Southern,GASO,Georgia Southern Eagles,GA Southern,https://a.espncdn.com/i/teamlogos/ncaa/500/290.png,https://a.espncdn.com/i/teamlogos/ncaa/500-dark/290.png,-81.78345,32.42546,Sun Belt Conference,#003775,#f0f0f0,2021,270,SB,13-13,-10.11,94.1,305,104.2,213,66.6,255,0.032,102,-3.37,253,100.4,258,103.7,250,-1.33,241,NA
Georgia State,2247,Panthers,Georgia State,GAST,Georgia State Panthers,Georgia State,https://a.espncdn.com/i/teamlogos/ncaa/500/2247.png,https://a.espncdn.com/i/teamlogos/ncaa/500-dark/2247.png,-84.3859,33.75357,Sun Belt Conference,#1e539a,#ebebeb,NA,NA,NA,NA,NA,NA,NA,NA,NA,NA,NA,NA,NA,NA,NA,NA,NA,NA,NA,NA,NA,NA
Georgia Tech,59,Yellow Jackets,Georgia Tech,GT,Georgia Tech Yellow Jackets,Georgia Tech,https://a.espncdn.com/i/teamlogos/ncaa/500/59.png,https://a.espncdn.com/i/teamlogos/ncaa/500-dark/59.png,-84.3859,33.75357,Atlantic Coast Conference,#00223e,#002c56,2021,37,ACC,17-9,17.5,113.7,22,96.2,68,67.3,223,-0.005,193,12.7,61,108.7,65,96,58,-0.96,233,9
Gonzaga,2250,Bulldogs,Gonzaga,GONZ,Gonzaga Bulldogs,Gonzaga,https://a.espncdn.com/i/teamlogos/ncaa/500/2250.png,https://a.espncdn.com/i/teamlogos/ncaa/500-dark/2250.png,-117.22069,47.62027,West Coast Conference,#002967,#cfd4d8,2021,1,WCC,31-1,36.48,126.4,1,89.9,11,73.8,7,0.022,127,11.35,72,108.1,70,96.8,74,6.21,112,1
Grambling,2755,Tigers,Grambling,GRAM,Grambling Tigers,Grambling,https://a.espncdn.com/i/teamlogos/ncaa/500/2755.png,https://a.espncdn.com/i/teamlogos/ncaa/500-dark/2755.png,-92.71737,32.5227,Southwestern Athletic Conference,#ee8601,#ffd10a,NA,NA,NA,NA,NA,NA,NA,NA,NA,NA,NA,NA,NA,NA,NA,NA,NA,NA,NA,NA,NA,NA
Grand Canyon,2253,Antelopes,Grand Canyon,GCU,Grand Canyon Antelopes,Grand Canyon,https://a.espncdn.com/i/teamlogos/ncaa/500/2253.png,https://a.espncdn.com/i/teamlogos/ncaa/500-dark/2253.png,-112.07353,33.45297,Western Athletic Conference,#522398,#f0f0f0,2021,103,WAC,17-7,8.32,105.4,121,97.1,81,64.9,319,-0.061,299,-1.44,211,102,211,103.5,238,2.54,177,15
Green Bay,2739,Phoenix,Green Bay,GB,Green Bay Phoenix,Green Bay,https://a.espncdn.com/i/teamlogos/ncaa/500/2739.png,https://a.espncdn.com/i/teamlogos/ncaa/500-dark/2739.png,-87.91994,44.53229,Horizon League,#006633,#b21038,2021,257,Horz,8-17,-8.28,102.3,169,110.6,324,65.9,285,-0.042,271,-1.16,207,103.2,177,104.3,278,13.51,32,NA
Hampton,2261,Pirates,Hampton,HAMP,Hampton Pirates,Hampton,https://a.espncdn.com/i/teamlogos/ncaa/500/2261.png,https://a.espncdn.com/i/teamlogos/ncaa/500-dark/2261.png,-76.34967,36.97515,Big South Conference,#0067AC,#000000,2021,327,BSth,11-14,-15.71,94.9,289,110.6,322,70.4,80,0.118,10,-7.39,328,98.6,306,106,334,-3.36,263,NA
Hartford,42,Hawks,Hartford,HART,Hartford Hawks,Hartford,https://a.espncdn.com/i/teamlogos/ncaa/500/42.png,https://a.espncdn.com/i/teamlogos/ncaa/500-dark/42.png,-72.71509,41.79566,America East Conference[i],#d60008,#000000,2021,194,AE,15-9,-2.98,97,271,100,127,66.9,243,0.081,30,-5.09,291,99.2,289,104.3,275,-0.17,217,16
Harvard,108,Crimson,Harvard,HARV,Harvard Crimson,Harvard,https://a.espncdn.com/i/teamlogos/ncaa/500/108.png,https://a.espncdn.com/i/teamlogos/ncaa/500-dark/108.png,-71.11666,42.377,Ivy League,#990000,#dbdbdb,2021,184,Ivy,0-0,-1.31,101.9,177,103.2,194,68.1,180,0,173,-99,348,0,348,200,348,-99,331,NA
High Point,2272,Panthers,High Point,HP,High Point Panthers,High Point,https://a.espncdn.com/i/teamlogos/ncaa/500/2272.png,https://a.espncdn.com/i/teamlogos/ncaa/500-dark/2272.png,-79.99365,35.97208,Big South Conference,#b0b7bc,#ebebeb,2021,284,BSth,9-15,-11.2,96.1,280,107.3,277,66.1,277,-0.033,253,-4.75,286,99.8,271,104.6,292,0.18,213,NA
Hofstra,2275,Pride,Hofstra,HOF,Hofstra Pride,Hofstra,https://a.espncdn.com/i/teamlogos/ncaa/500/2275.png,https://a.espncdn.com/i/teamlogos/ncaa/500-dark/2275.png,-73.60271,40.71386,Colonial Athletic Association,#00337c,#f6c934,2021,190,CAA,13-10,-2.55,105.9,112,108.4,295,68.1,179,0.052,65,-1.31,210,101.6,223,102.9,216,5.15,133,NA
Holy Cross,107,Crusaders,Holy Cross,HC,Holy Cross Crusaders,Holy Cross,https://a.espncdn.com/i/teamlogos/ncaa/500/107.png,https://a.espncdn.com/i/teamlogos/ncaa/500-dark/107.png,-71.7677,42.27307,Patriot League,#0a0a0a,#080808,2021,304,Pat,5-11,-12.55,97.2,265,109.8,314,69.1,126,-0.047,277,-2.51,235,102,215,104.5,283,-99,331,NA
Houston,248,Cougars,Houston,HOU,Houston Cougars,Houston,https://a.espncdn.com/i/teamlogos/ncaa/500/248.png,https://a.espncdn.com/i/teamlogos/ncaa/500-dark/248.png,-95.31593,29.69394,American Athletic Conference,#C90822,#231f20,2021,5,Amer,28-4,28.75,118.3,7,89.6,9,64.4,332,0.018,133,9.21,90,105.7,105,96.5,67,2.11,187,2
Houston Baptist,2277,Huskies,Houston Baptist,HBU,Houston Baptist Huskies,Houston Baptist,https://a.espncdn.com/i/teamlogos/ncaa/500/2277.png,https://a.espncdn.com/i/teamlogos/ncaa/500-dark/2277.png,-95.31593,29.69394,Southland Conference,#00539c,#000000,2021,341,Slnd,6-19,-18.9,92.5,321,111.4,331,72.6,18,-0.003,186,-2.99,245,100.6,249,103.6,247,11.53,48,NA
Howard,47,Bison,Howard,HOW,Howard Bison,Howard,https://a.espncdn.com/i/teamlogos/ncaa/500/47.png,https://a.espncdn.com/i/teamlogos/ncaa/500-dark/47.png,-77.03637,38.89511,Mid-Eastern Athletic Conference,#9e0b0e,#6b818d,2021,314,MEAC,1-4,-13.94,98.2,247,112.2,337,69.5,110,0.102,15,-1.12,206,103.6,168,104.7,296,-1.12,237,NA
Idaho,70,Vandals,Idaho,IDHO,Idaho Vandals,Idaho,https://a.espncdn.com/i/teamlogos/ncaa/500/70.png,https://a.espncdn.com/i/teamlogos/ncaa/500-dark/70.png,-117.01264,46.72746,Big Sky Conference,#000000,#8c6e4a,2021,350,BSky,1-21,-23.01,90.6,338,113.6,349,66.8,250,-0.021,227,0.42,190,102.9,182,102.5,198,15.56,18,NA
Idaho State,304,Bengals,Idaho State,IDST,Idaho State Bengals,Idaho State,https://a.espncdn.com/i/teamlogos/ncaa/500/304.png,https://a.espncdn.com/i/teamlogos/ncaa/500-dark/304.png,-112.43331,42.86686,Big Sky Conference,#ef8c00,#e9a126,NA,NA,NA,NA,NA,NA,NA,NA,NA,NA,NA,NA,NA,NA,NA,NA,NA,NA,NA,NA,NA,NA
Illinois State,2287,Redbirds,Illinois State,ILST,Illinois State Redbirds,Illinois State,https://a.espncdn.com/i/teamlogos/ncaa/500/2287.png,https://a.espncdn.com/i/teamlogos/ncaa/500-dark/2287.png,-88.91395,40.48299,Missouri Valley Conference[k],#CE1126,#ffe716,NA,NA,NA,NA,NA,NA,NA,NA,NA,NA,NA,NA,NA,NA,NA,NA,NA,NA,NA,NA,NA,NA
Incarnate Word,2916,Cardinals,Incarnate Word,UIW,Incarnate Word Cardinals,Incarnate Word,https://a.espncdn.com/i/teamlogos/ncaa/500/2916.png,https://a.espncdn.com/i/teamlogos/ncaa/500-dark/2916.png,-98.49363,29.42412,Southland Conference,#000000,#080808,2021,343,Slnd,8-14,-19.09,93.6,308,112.7,342,64.7,324,-0.049,281,-7.08,321,98.2,315,105.3,314,7.53,97,NA
Indiana,84,Hoosiers,Indiana,IU,Indiana Hoosiers,Indiana,https://a.espncdn.com/i/teamlogos/ncaa/500/84.png,https://a.espncdn.com/i/teamlogos/ncaa/500-dark/84.png,-86.53412,39.18325,Big Ten Conference,#7D110C,#eeedeb,2021,50,B10,12-15,14.95,109.1,70,94.2,43,65.9,289,-0.053,290,18.33,3,111.4,13,93.1,3,9.18,72,NA
Indiana State,282,Sycamores,Indiana State,INST,Indiana State Sycamores,Indiana State,https://a.espncdn.com/i/teamlogos/ncaa/500/282.png,https://a.espncdn.com/i/teamlogos/ncaa/500-dark/282.png,-87.40863,39.46865,Missouri Valley Conference[k],#00669a,#f0f0f0,NA,NA,NA,NA,NA,NA,NA,NA,NA,NA,NA,NA,NA,NA,NA,NA,NA,NA,NA,NA,NA,NA
Iona,314,Gaels,Iona,IONA,Iona Gaels,Iona,https://a.espncdn.com/i/teamlogos/ncaa/500/314.png,https://a.espncdn.com/i/teamlogos/ncaa/500-dark/314.png,-73.78708,40.92593,Metro Atlantic Athletic Conference,#8c001a,#f6a704,2021,178,MAAC,12-6,-0.78,100.2,217,101,146,67.7,199,0.03,107,-5.67,303,98.3,312,103.9,260,-0.54,225,15
Iowa,2294,Hawkeyes,Iowa,IOWA,Iowa Hawkeyes,Iowa,https://a.espncdn.com/i/teamlogos/ncaa/500/2294.png,https://a.espncdn.com/i/teamlogos/ncaa/500-dark/2294.png,-91.53017,41.66113,Big Ten Conference,#000000,#ffe100,2021,7,B10,22-9,26.87,123.5,3,96.7,75,69.9,93,-0.027,244,16.41,20,110.4,31,94,9,-4.9,285,2
Iowa State,66,Cyclones,Iowa State,ISU,Iowa State Cyclones,Iowa State,https://a.espncdn.com/i/teamlogos/ncaa/500/66.png,https://a.espncdn.com/i/teamlogos/ncaa/500-dark/66.png,-93.70558,42.11484,Big 12 Conference,#660015,#830b2c,NA,NA,NA,NA,NA,NA,NA,NA,NA,NA,NA,NA,NA,NA,NA,NA,NA,NA,NA,NA,NA,NA
IUPUI,85,Jaguars,IUPUI,IUPU,IUPUI Jaguars,IUPUI,https://a.espncdn.com/i/teamlogos/ncaa/500/85.png,https://a.espncdn.com/i/teamlogos/ncaa/500-dark/85.png,-86.18527,39.77643,Horizon League,#A81F30,#d59f0f,2021,263,Horz,8-10,-9.37,96.2,279,105.5,243,72.1,28,0.076,36,-2.49,233,102.1,210,104.5,288,-15.79,326,NA
Jackson State,2296,Tigers,Jackson State,JKST,Jackson State Tigers,Jackson State,https://a.espncdn.com/i/teamlogos/ncaa/500/2296.png,https://a.espncdn.com/i/teamlogos/ncaa/500-dark/2296.png,-90.18481,32.29876,Southwestern Athletic Conference,#123297,#b5b7ba,NA,NA,NA,NA,NA,NA,NA,NA,NA,NA,NA,NA,NA,NA,NA,NA,NA,NA,NA,NA,NA,NA
Jacksonville,294,Dolphins,Jacksonville,JAX,Jacksonville Dolphins,Jacksonville,https://a.espncdn.com/i/teamlogos/ncaa/500/294.png,https://a.espncdn.com/i/teamlogos/ncaa/500-dark/294.png,-81.66438,30.34835,ASUN Conference,#00523e,#000000,2021,293,ASun,11-13,-11.85,93.7,307,105.5,241,67.6,204,0.05,70,-4.53,282,100.4,256,104.9,305,-4.87,282,NA
Jacksonville State,55,Gamecocks,Jacksonville St,JVST,Jacksonville State Gamecocks,Jacksonville St,https://a.espncdn.com/i/teamlogos/ncaa/500/55.png,https://a.espncdn.com/i/teamlogos/ncaa/500-dark/55.png,-85.7613,33.81382,Ohio Valley Conference[e],#b50500,#b5b7ba,NA,NA,NA,NA,NA,NA,NA,NA,NA,NA,NA,NA,NA,NA,NA,NA,NA,NA,NA,NA,NA,NA
James Madison,256,Dukes,James Madison,JMU,James Madison Dukes,James Madison,https://a.espncdn.com/i/teamlogos/ncaa/500/256.png,https://a.espncdn.com/i/teamlogos/ncaa/500-dark/256.png,-78.87694,38.43929,Colonial Athletic Association,#450084,#cbb778,2021,177,CAA,13-7,-0.69,103.5,151,104.2,210,71.8,36,-0.048,278,-1.91,220,101.1,236,103,220,-0.26,220,NA
Kansas,2305,Jayhawks,Kansas,KU,Kansas Jayhawks,Kansas,https://a.espncdn.com/i/teamlogos/ncaa/500/2305.png,https://a.espncdn.com/i/teamlogos/ncaa/500-dark/2305.png,-95.2458,38.95909,Big 12 Conference,#0022B4,#e8000d,2021,27,B12,21-9,19.98,110.1,54,90.2,12,68.2,174,0.07,44,15.83,24,110.7,25,94.8,29,10.43,60,3
Kansas State,2306,Wildcats,Kansas State,KSU,Kansas State Wildcats,Kansas State,https://a.espncdn.com/i/teamlogos/ncaa/500/2306.png,https://a.espncdn.com/i/teamlogos/ncaa/500-dark/2306.png,-96.58189,39.19252,Big 12 Conference,#633194,#e7d2ad,NA,NA,NA,NA,NA,NA,NA,NA,NA,NA,NA,NA,NA,NA,NA,NA,NA,NA,NA,NA,NA,NA
Kennesaw State,338,Owls,Kennesaw State,KENN,Kennesaw State Owls,Kennesaw State,https://a.espncdn.com/i/teamlogos/ncaa/500/338.png,https://a.espncdn.com/i/teamlogos/ncaa/500-dark/338.png,-84.5265,33.96119,ASUN Conference[l],#000000,#fdbb30,NA,NA,NA,NA,NA,NA,NA,NA,NA,NA,NA,NA,NA,NA,NA,NA,NA,NA,NA,NA,NA,NA
Kent State,2309,Golden Flashes,Kent State,KENT,Kent State Golden Flashes,Kent State,https://a.espncdn.com/i/teamlogos/ncaa/500/2309.png,https://a.espncdn.com/i/teamlogos/ncaa/500-dark/2309.png,-81.33844,41.14783,Mid-American Conference,#002445,#f0b510,NA,NA,NA,NA,NA,NA,NA,NA,NA,NA,NA,NA,NA,NA,NA,NA,NA,NA,NA,NA,NA,NA
Kentucky,96,Wildcats,Kentucky,UK,Kentucky Wildcats,Kentucky,https://a.espncdn.com/i/teamlogos/ncaa/500/96.png,https://a.espncdn.com/i/teamlogos/ncaa/500-dark/96.png,-84.49938,38.03036,Southeastern Conference,#005DAA,#ffffff,2021,49,SEC,9-16,14.97,108,84,93.1,35,68.1,181,-0.148,354,16.91,15,110.9,22,94,10,15.29,23,NA
La Salle,2325,Explorers,La Salle,LAS,La Salle Explorers,La Salle,https://a.espncdn.com/i/teamlogos/ncaa/500/2325.png,https://a.espncdn.com/i/teamlogos/ncaa/500-dark/2325.png,-75.15407,40.03872,Atlantic 10 Conference,#000063,#feca26,2021,200,A10,9-16,-3.83,101.8,181,105.6,245,68.5,155,-0.012,211,7.06,105,104.7,134,97.6,93,5.97,116,NA
Lafayette,322,Leopards,Lafayette,LAF,Lafayette Leopards,Lafayette,https://a.espncdn.com/i/teamlogos/ncaa/500/322.png,https://a.espncdn.com/i/teamlogos/ncaa/500-dark/322.png,-75.2074,40.69815,Patriot League,#790000,#a59474,2021,262,Pat,9-6,-9.08,102.9,163,112,335,68.6,145,0.062,53,-8.82,338,96.6,333,105.4,318,-99,331,NA
Lamar,2320,Cardinals,Lamar,LAM,Lamar Cardinals,Lamar,https://a.espncdn.com/i/teamlogos/ncaa/500/2320.png,https://a.espncdn.com/i/teamlogos/ncaa/500-dark/2320.png,-94.11983,30.07065,Southland Conference[a],#000000,#ebebeb,2021,307,Slnd,10-18,-12.82,93.1,316,105.9,254,67.5,210,0.009,151,-4.23,274,99.3,288,103.5,239,2.64,176,NA
Lehigh,2329,Mountain Hawks,Lehigh,LEH,Lehigh Mountain Hawks,Lehigh,https://a.espncdn.com/i/teamlogos/ncaa/500/2329.png,https://a.espncdn.com/i/teamlogos/ncaa/500-dark/2329.png,-75.42931,40.64778,Patriot League,#6c2b2a,#b69e70,2021,334,Pat,4-11,-17.39,91.6,326,109,303,70,87,0.063,52,-5.82,306,101,241,106.8,343,-99,331,NA
Liberty,2335,Flames,Liberty,LIB,Liberty Flames,Liberty,https://a.espncdn.com/i/teamlogos/ncaa/500/2335.png,https://a.espncdn.com/i/teamlogos/ncaa/500-dark/2335.png,-79.18119,37.39941,ASUN Conference[m],#071740,#a61f21,2021,98,ASun,23-6,8.6,109.8,58,101.2,153,63.1,347,-0.023,231,-4.82,287,99.5,283,104.3,272,1.58,195,13
Lipscomb,288,Bisons,Lipscomb,LIP,Lipscomb Bisons,Lipscomb,https://a.espncdn.com/i/teamlogos/ncaa/500/288.png,https://a.espncdn.com/i/teamlogos/ncaa/500-dark/288.png,-86.78694,36.16339,ASUN Conference,#20366C,#f6b734,2021,238,ASun,15-12,-6.74,100.9,198,107.7,282,66,282,0.024,120,-3.63,259,100.2,263,103.8,254,3.14,167,NA
Little Rock,2031,Trojans,Little Rock,UALR,Little Rock Trojans,Little Rock,https://a.espncdn.com/i/teamlogos/ncaa/500/2031.png,https://a.espncdn.com/i/teamlogos/ncaa/500-dark/2031.png,-92.34126,34.72176,Sun Belt Conference,#AD0000,#898d8f,2021,239,SB,11-15,-6.86,98.4,243,105.3,235,67,240,-0.04,266,-2.76,241,99.8,275,102.6,203,3.86,155,NA
Long Beach State,299,Beach,Long Beach St,LBSU,Long Beach State Beach,Long Beach St,https://a.espncdn.com/i/teamlogos/ncaa/500/299.png,https://a.espncdn.com/i/teamlogos/ncaa/500-dark/299.png,-118.11446,33.78745,Big West Conference,#000000,#f1f2f3,NA,NA,NA,NA,NA,NA,NA,NA,NA,NA,NA,NA,NA,NA,NA,NA,NA,NA,NA,NA,NA,NA
Longwood,2344,Lancers,Longwood,LONG,Longwood Lancers,Longwood,https://a.espncdn.com/i/teamlogos/ncaa/500/2344.png,https://a.espncdn.com/i/teamlogos/ncaa/500-dark/2344.png,-78.39604,37.29909,Big South Conference,#003273,#9ea2a3,2021,247,BSth,12-17,-7.33,98,251,105.4,237,65,317,-0.027,243,-4.04,270,100.4,253,104.5,285,1.92,193,NA
Louisiana,309,Ragin' Cajuns,Louisiana,ULL,Louisiana Ragin' Cajuns,Louisiana,https://a.espncdn.com/i/teamlogos/ncaa/500/309.png,https://a.espncdn.com/i/teamlogos/ncaa/500-dark/309.png,-92.01941,30.21528,Sun Belt Conference,#ce2842,#000000,2021,201,SB,17-9,-3.89,100.3,211,104.2,214,71,56,0.096,19,-3.74,265,100.4,257,104.1,267,-1.65,248,NA
Louisiana Tech,2348,Bulldogs,Louisiana Tech,LT,Louisiana Tech Bulldogs,Louisiana Tech,https://a.espncdn.com/i/teamlogos/ncaa/500/2348.png,https://a.espncdn.com/i/teamlogos/ncaa/500-dark/2348.png,-92.64717,32.5383,Conference USA,#002d65,#d3313a,2021,82,CUSA,24-8,10.46,104.2,133,93.7,39,69.4,112,0.055,62,3.02,151,103.2,175,100.2,138,-8.57,311,4
Louisville,97,Cardinals,Louisville,LOU,Louisville Cardinals,Louisville,https://a.espncdn.com/i/teamlogos/ncaa/500/97.png,https://a.espncdn.com/i/teamlogos/ncaa/500-dark/97.png,-85.58274,38.25368,Atlantic Coast Conference,#ad000a,#cccccc,2021,59,ACC,13-7,13.54,107.7,92,94.2,44,65.7,300,0.118,9,13.29,53,109.9,39,96.6,69,7.71,95,NA
Loyola (MD),2352,Greyhounds,Loyola (MD),L-MD,Loyola (MD) Greyhounds,Loyola (MD),https://a.espncdn.com/i/teamlogos/ncaa/500/2352.png,https://a.espncdn.com/i/teamlogos/ncaa/500-dark/2352.png,-76.71168,39.25543,Patriot League,#76a7a0,#c9cbca,NA,NA,NA,NA,NA,NA,NA,NA,NA,NA,NA,NA,NA,NA,NA,NA,NA,NA,NA,NA,NA,NA
Loyola Chicago,2350,Ramblers,Loyola Chicago,LUC,Loyola Chicago Ramblers,Loyola Chicago,https://a.espncdn.com/i/teamlogos/ncaa/500/2350.png,https://a.espncdn.com/i/teamlogos/ncaa/500-dark/2350.png,-87.64922,41.87198,Missouri Valley Conference,#9d1244,#000000,2021,10,MVC,26-5,24.32,111.3,41,87,2,63.7,342,-0.024,233,6.27,112,105.6,110,99.4,123,4.81,139,8
Loyola Marymount,2351,Lions,Loyola Marymnt,LMU,Loyola Marymount Lions,Loyola Marymnt,https://a.espncdn.com/i/teamlogos/ncaa/500/2351.png,https://a.espncdn.com/i/teamlogos/ncaa/500-dark/2351.png,-118.1686,34.066,West Coast Conference,#880029,#00345b,2021,94,WCC,13-9,8.8,107.8,89,99,114,66,284,0.033,99,8.41,100,105.6,108,97.2,84,6.76,105,NA
LSU,99,Tigers,LSU,LSU,LSU Tigers,LSU,https://a.espncdn.com/i/teamlogos/ncaa/500/99.png,https://a.espncdn.com/i/teamlogos/ncaa/500-dark/99.png,-91.10355,30.38261,Southeastern Conference,#2B0D57,#fdd023,2021,24,SEC,19-10,20.35,120.1,5,99.8,124,70.6,70,-0.007,201,14.77,35,108.7,66,93.9,7,1.13,202,8
Maine,311,Black Bears,Maine,ME,Maine Black Bears,Maine,https://a.espncdn.com/i/teamlogos/ncaa/500/311.png,https://a.espncdn.com/i/teamlogos/ncaa/500-dark/311.png,-68.67253,44.8984,America East Conference,#127dbe,#000000,2021,346,AE,2-7,-20,85.9,353,105.9,251,64.5,330,0.028,112,-0.78,200,100.9,244,101.6,166,6.69,106,NA
Manhattan,2363,Jaspers,Manhattan,MAN,Manhattan Jaspers,Manhattan,https://a.espncdn.com/i/teamlogos/ncaa/500/2363.png,https://a.espncdn.com/i/teamlogos/ncaa/500-dark/2363.png,-73.90278,40.90361,Metro Atlantic Athletic Conference,#4f8537,#b5b7ba,2021,315,MAAC,7-13,-14.18,89.5,346,103.7,202,67.1,233,-0.006,195,-7.27,324,96.6,334,103.8,256,-19.54,330,NA
Marist,2368,Red Foxes,Marist,MRST,Marist Red Foxes,Marist,https://a.espncdn.com/i/teamlogos/ncaa/500/2368.png,https://a.espncdn.com/i/teamlogos/ncaa/500-dark/2368.png,-73.9343,41.72204,Metro Atlantic Athletic Conference[c],#e53730,#f0f0f0,2021,266,MAAC,12-9,-9.69,91.6,328,101.3,155,66.1,280,0.082,29,-7.36,327,97.2,328,104.5,287,-13.45,323,NA
Marquette,269,Golden Eagles,Marquette,MARQ,Marquette Golden Eagles,Marquette,https://a.espncdn.com/i/teamlogos/ncaa/500/269.png,https://a.espncdn.com/i/teamlogos/ncaa/500-dark/269.png,-87.88126,43.07535,Big East Conference,#083963,#ffffff,2021,83,BE,13-14,10.4,107.5,94,97.1,83,67.4,216,-0.007,199,14.12,44,109.7,42,95.6,46,7.66,96,NA
Marshall,276,Thundering Herd,Marshall,MRSH,Marshall Thundering Herd,Marshall,https://a.espncdn.com/i/teamlogos/ncaa/500/276.png,https://a.espncdn.com/i/teamlogos/ncaa/500-dark/276.png,-82.3747,38.41031,Conference USA,#186329,#be854c,2021,92,CUSA,15-7,8.89,109.2,67,100.3,133,72.6,20,-0.068,312,1.45,172,102.9,184,101.4,157,0.58,209,NA
Maryland,120,Terrapins,Maryland,MD,Maryland Terrapins,Maryland,https://a.espncdn.com/i/teamlogos/ncaa/500/120.png,https://a.espncdn.com/i/teamlogos/ncaa/500-dark/120.png,-76.9397,38.98861,Big Ten Conference,#D5002B,#ffcd00,2021,35,B10,17-14,17.63,111.8,37,94.1,42,64.7,321,-0.024,234,17.1,13,110.2,34,93.1,2,-1.11,236,10
Memphis,235,Tigers,Memphis,MEM,Memphis Tigers,Memphis,https://a.espncdn.com/i/teamlogos/ncaa/500/235.png,https://a.espncdn.com/i/teamlogos/ncaa/500-dark/235.png,-89.93731,35.1187,American Athletic Conference,#002447,#231f20,2021,31,Amer,20-8,19.11,105.5,117,86.4,1,71.3,48,-0.068,311,8.72,96,105.9,101,97.2,82,1.45,198,1
Mercer,2382,Bears,Mercer,MER,Mercer Bears,Mercer,https://a.espncdn.com/i/teamlogos/ncaa/500/2382.png,https://a.espncdn.com/i/teamlogos/ncaa/500-dark/2382.png,-83.6365,32.83423,Southern Conference,#ff7f29,#080808,2021,131,SC,18-11,3.43,106.2,108,102.8,186,67.7,196,-0.002,184,2.05,165,104.1,156,102,179,1.56,196,NA
Miami (OH),193,Redhawks,Miami (OH),M-OH,Miami (OH) Redhawks,Miami (OH),https://a.espncdn.com/i/teamlogos/ncaa/500/193.png,https://a.espncdn.com/i/teamlogos/ncaa/500-dark/193.png,-84.78263,39.50727,Mid-American Conference,#a4000c,#f0f0f0,NA,NA,NA,NA,NA,NA,NA,NA,NA,NA,NA,NA,NA,NA,NA,NA,NA,NA,NA,NA,NA,NA
Michigan,130,Wolverines,Michigan,MICH,Michigan Wolverines,Michigan,https://a.espncdn.com/i/teamlogos/ncaa/500/130.png,https://a.espncdn.com/i/teamlogos/ncaa/500-dark/130.png,-83.73605,42.27587,Big Ten Conference,#00274c,#00274c,2021,3,B10,23-5,29.67,117.6,9,87.9,4,66.6,256,0.007,156,16.44,19,111.7,9,95.3,39,2.51,178,1
Michigan State,127,Spartans,Michigan State,MSU,Michigan State Spartans,Michigan State,https://a.espncdn.com/i/teamlogos/ncaa/500/127.png,https://a.espncdn.com/i/teamlogos/ncaa/500-dark/127.png,-84.48949,42.72536,Big Ten Conference,#18453B,#ffffff,NA,NA,NA,NA,NA,NA,NA,NA,NA,NA,NA,NA,NA,NA,NA,NA,NA,NA,NA,NA,NA,NA
Middle Tennessee,2393,Blue Raiders,Middle Tenn,MTU,Middle Tennessee Blue Raiders,Middle Tenn,https://a.espncdn.com/i/teamlogos/ncaa/500/2393.png,https://a.espncdn.com/i/teamlogos/ncaa/500-dark/2393.png,-86.36999,35.852290000000004,Conference USA,#0079C2,#c3c5c8,2021,306,CUSA,5-18,-12.66,91.2,332,103.9,207,69.2,117,-0.035,256,2.63,158,102.6,193,99.9,133,0.99,203,NA
Milwaukee,270,Panthers,Milwaukee,MILW,Milwaukee Panthers,Milwaukee,https://a.espncdn.com/i/teamlogos/ncaa/500/270.png,https://a.espncdn.com/i/teamlogos/ncaa/500-dark/270.png,-87.88126,43.07535,Horizon League,#000000,#ffc20e,2021,216,Horz,10-12,-5.05,101.8,180,106.9,271,69.8,97,-0.01,204,-2.14,225,101.9,216,104.1,265,0.69,206,NA
Minnesota,135,Golden Gophers,Minnesota,MINN,Minnesota Golden Gophers,Minnesota,https://a.espncdn.com/i/teamlogos/ncaa/500/135.png,https://a.espncdn.com/i/teamlogos/ncaa/500-dark/135.png,-93.23475,44.97593,Big Ten Conference,#981a31,#981a31,2021,62,B10,14-15,12.97,108.4,76,95.4,56,69.9,88,0.011,147,17.03,14,111.4,12,94.4,18,0.16,214,NA
Mississippi State,344,Bulldogs,Mississippi St,MSST,Mississippi State Bulldogs,Mississippi St,https://a.espncdn.com/i/teamlogos/ncaa/500/344.png,https://a.espncdn.com/i/teamlogos/ncaa/500-dark/344.png,-90.33967,33.51186,Southeastern Conference,#762123,#c8c8c8,NA,NA,NA,NA,NA,NA,NA,NA,NA,NA,NA,NA,NA,NA,NA,NA,NA,NA,NA,NA,NA,NA
Mississippi Valley State,2400,Delta Devils,Miss Valley St,MVSU,Mississippi Valley State Delta Devils,Miss Valley St,https://a.espncdn.com/i/teamlogos/ncaa/500/2400.png,https://a.espncdn.com/i/teamlogos/ncaa/500-dark/2400.png,-90.33967,33.51186,Southwestern Athletic Conference,#005328,#cf2d34,NA,NA,NA,NA,NA,NA,NA,NA,NA,NA,NA,NA,NA,NA,NA,NA,NA,NA,NA,NA,NA,NA
Missouri,142,Tigers,Missouri,MIZ,Missouri Tigers,Missouri,https://a.espncdn.com/i/teamlogos/ncaa/500/142.png,https://a.espncdn.com/i/teamlogos/ncaa/500-dark/142.png,-92.32888,38.94526,Southeastern Conference,#000000,#000000,2021,47,SEC,16-10,15.14,110.6,49,95.5,57,68.4,163,0.07,43,15.85,23,110.2,33,94.4,17,11.39,50,9
Missouri State,2623,Bears,Missouri State,MOST,Missouri State Bears,Missouri State,https://a.espncdn.com/i/teamlogos/ncaa/500/2623.png,https://a.espncdn.com/i/teamlogos/ncaa/500-dark/2623.png,-91.52321,39.79421,Missouri Valley Conference[k],#5F0000,#e8e8e8,NA,NA,NA,NA,NA,NA,NA,NA,NA,NA,NA,NA,NA,NA,NA,NA,NA,NA,NA,NA,NA,NA
Monmouth,2405,Hawks,Monmouth,MONM,Monmouth Hawks,Monmouth,https://a.espncdn.com/i/teamlogos/ncaa/500/2405.png,https://a.espncdn.com/i/teamlogos/ncaa/500-dark/2405.png,-74.00653,40.27811,Metro Atlantic Athletic Conference[o],#051844,#000000,2021,226,MAAC,12-8,-6.09,99,237,105.1,229,74.2,5,0.05,71,-6.16,312,96.9,330,103.1,224,-3.73,268,NA
Montana,149,Grizzlies,Montana,MONT,Montana Grizzlies,Montana,https://a.espncdn.com/i/teamlogos/ncaa/500/149.png,https://a.espncdn.com/i/teamlogos/ncaa/500-dark/149.png,-113.98372,46.8602,Big Sky Conference,#751D4A,#666666,2021,189,BSky,15-13,-2.35,98.8,239,101.2,154,65.7,299,0.009,149,2.56,159,104.7,136,102.1,181,19.82,10,NA
Montana State,147,Bobcats,Montana State,MTST,Montana State Bobcats,Montana State,https://a.espncdn.com/i/teamlogos/ncaa/500/147.png,https://a.espncdn.com/i/teamlogos/ncaa/500-dark/147.png,-111.053,45.66965,Big Sky Conference,#003875,#bf965c,NA,NA,NA,NA,NA,NA,NA,NA,NA,NA,NA,NA,NA,NA,NA,NA,NA,NA,NA,NA,NA,NA
Morehead State,2413,Eagles,Morehead State,MORE,Morehead State Eagles,Morehead State,https://a.espncdn.com/i/teamlogos/ncaa/500/2413.png,https://a.espncdn.com/i/teamlogos/ncaa/500-dark/2413.png,-83.435,38.18575,Ohio Valley Conference[c],#094FA3,#fed91a,NA,NA,NA,NA,NA,NA,NA,NA,NA,NA,NA,NA,NA,NA,NA,NA,NA,NA,NA,NA,NA,NA
Murray State,93,Racers,Murray State,MUR,Murray State Racers,Murray State,https://a.espncdn.com/i/teamlogos/ncaa/500/93.png,https://a.espncdn.com/i/teamlogos/ncaa/500-dark/93.png,-88.32226,36.61144,Ohio Valley Conference,#002148,#000e00,NA,NA,NA,NA,NA,NA,NA,NA,NA,NA,NA,NA,NA,NA,NA,NA,NA,NA,NA,NA,NA,NA
Navy,2426,Midshipmen,Navy,NAVY,Navy Midshipmen,Navy,https://a.espncdn.com/i/teamlogos/ncaa/500/2426.png,https://a.espncdn.com/i/teamlogos/ncaa/500-dark/2426.png,-76.50184,38.98729,Patriot League[w],#131630,#b6a77c,2021,166,Pat,15-3,0.02,103.7,145,103.7,201,65.9,286,0.179,2,-5.28,294,98.2,316,103.5,240,7.37,99,NA
NC State,152,Wolfpack,NC State,NCST,NC State Wolfpack,NC State,https://a.espncdn.com/i/teamlogos/ncaa/500/152.png,https://a.espncdn.com/i/teamlogos/ncaa/500-dark/152.png,-78.68862,35.72238,Atlantic Coast Conference,#EF1216,#231f20,NA,NA,NA,NA,NA,NA,NA,NA,NA,NA,NA,NA,NA,NA,NA,NA,NA,NA,NA,NA,NA,NA
Nebraska,158,Cornhuskers,Nebraska,NEB,Nebraska Cornhuskers,Nebraska,https://a.espncdn.com/i/teamlogos/ncaa/500/158.png,https://a.espncdn.com/i/teamlogos/ncaa/500-dark/158.png,-96.70057,40.81752,Big Ten Conference,#F20017,#f5f1e7,2021,109,B10,7-20,7.76,101.8,179,94.1,40,71.8,35,-0.128,351,18.3,4,112.4,4,94.1,12,5.6,126,NA
Nevada,2440,Wolf Pack,Nevada,NEV,Nevada Wolf Pack,Nevada,https://a.espncdn.com/i/teamlogos/ncaa/500/2440.png,https://a.espncdn.com/i/teamlogos/ncaa/500-dark/2440.png,-119.87853,39.67102,Mountain West Conference,#153E5F,#8e9295,2021,91,MWC,16-10,8.98,108.8,72,99.9,125,69.8,95,-0.012,213,6.26,113,104.7,132,98.5,108,7.37,98,NA
New Hampshire,160,Wildcats,New Hampshire,UNH,New Hampshire Wildcats,New Hampshire,https://a.espncdn.com/i/teamlogos/ncaa/500/160.png,https://a.espncdn.com/i/teamlogos/ncaa/500-dark/160.png,-71.49868,43.03981,America East Conference,#004990,#c3c4c6,2021,268,AE,10-9,-9.83,96,282,105.8,249,66.4,266,0.056,57,-6.27,314,97.3,327,103.6,246,-4.42,277,NA
New Mexico,167,Lobos,New Mexico,UNM,New Mexico Lobos,New Mexico,https://a.espncdn.com/i/teamlogos/ncaa/500/167.png,https://a.espncdn.com/i/teamlogos/ncaa/500-dark/167.png,-106.65114,35.08449,Mountain West Conference,#000000,#231f20,2021,294,MWC,6-16,-11.86,91.6,327,103.5,196,67.7,195,-0.039,265,3.6,142,104.6,139,101,148,-4.14,273,NA
New Mexico State,166,Aggies,New Mexico St,NMSU,New Mexico State Aggies,New Mexico St,https://a.espncdn.com/i/teamlogos/ncaa/500/166.png,https://a.espncdn.com/i/teamlogos/ncaa/500-dark/166.png,-106.73231,32.29041,Western Athletic Conference[p],#891216,#000000,NA,NA,NA,NA,NA,NA,NA,NA,NA,NA,NA,NA,NA,NA,NA,NA,NA,NA,NA,NA,NA,NA
New Orleans,2443,Privateers,New Orleans,UNO,New Orleans Privateers,New Orleans,https://a.espncdn.com/i/teamlogos/ncaa/500/2443.png,https://a.espncdn.com/i/teamlogos/ncaa/500-dark/2443.png,-90.07507,29.95465,Southland Conference,#2b3986,#a2a9ae,2021,278,Slnd,10-15,-10.73,97.3,260,108.1,290,72.4,23,-0.093,333,-8.05,333,98.7,303,106.8,342,2.41,181,NA
Niagara,315,Purple Eagles,Niagara,NIAG,Niagara Purple Eagles,Niagara,https://a.espncdn.com/i/teamlogos/ncaa/500/315.png,https://a.espncdn.com/i/teamlogos/ncaa/500-dark/315.png,-79.03893,43.13867,Metro Atlantic Athletic Conference,#69207E,#f0f0f0,2021,250,MAAC,9-11,-7.71,99.8,222,107.5,280,64.5,329,-0.041,268,-5.72,304,96.5,335,102.2,185,10.14,64,NA
Nicholls,2447,Colonels,Nicholls,NICH,Nicholls Colonels,Nicholls,https://a.espncdn.com/i/teamlogos/ncaa/500/2447.png,https://a.espncdn.com/i/teamlogos/ncaa/500-dark/2447.png,-90.84083,29.77417,Southland Conference,#C41230,#f0f0f0,NA,NA,NA,NA,NA,NA,NA,NA,NA,NA,NA,NA,NA,NA,NA,NA,NA,NA,NA,NA,NA,NA
NJIT,2885,Highlanders,NJIT,NJIT,NJIT Highlanders,NJIT,https://a.espncdn.com/i/teamlogos/ncaa/500/2885.png,https://a.espncdn.com/i/teamlogos/ncaa/500-dark/2885.png,-73.87989,40.77331,America East Conference,#EE3024,#df3e2e,2021,295,AE,7-12,-12.08,94.2,303,106.2,263,68.2,171,0.024,121,-4.29,275,98.8,300,103.1,225,-0.5,223,NA
Norfolk State,2450,Spartans,Norfolk State,NORF,Norfolk State Spartans,Norfolk State,https://a.espncdn.com/i/teamlogos/ncaa/500/2450.png,https://a.espncdn.com/i/teamlogos/ncaa/500-dark/2450.png,-76.45339,36.8074,Mid-Eastern Athletic Conference,#046546,#000000,NA,NA,NA,NA,NA,NA,NA,NA,NA,NA,NA,NA,NA,NA,NA,NA,NA,NA,NA,NA,NA,NA
North Carolina A&T,2448,Aggies,NC A&T,NCAT,North Carolina A&T Aggies,NC A&T,https://a.espncdn.com/i/teamlogos/ncaa/500/2448.png,https://a.espncdn.com/i/teamlogos/ncaa/500-dark/2448.png,-79.81114,36.07097,Mid-Eastern Athletic Conference[q],#0505aa,#004684,2021,283,MEAC,11-10,-11.09,95.6,284,106.7,268,70.6,73,0.078,32,-4.98,288,97.8,321,102.8,212,2.87,169,NA
North Carolina Central,2428,Eagles,NC Central,NCCU,North Carolina Central Eagles,NC Central,https://a.espncdn.com/i/teamlogos/ncaa/500/2428.png,https://a.espncdn.com/i/teamlogos/ncaa/500-dark/2428.png,-78.89945,35.97459,Mid-Eastern Athletic Conference,#880023,#c2c3c0,2021,330,MEAC,5-9,-16.21,93.3,311,109.5,311,65.9,287,0.033,100,-6.13,310,96.5,336,102.6,206,12.85,39,NA
North Dakota,155,Fighting Hawks,North Dakota,UND,North Dakota Fighting Hawks,North Dakota,https://a.espncdn.com/i/teamlogos/ncaa/500/155.png,https://a.espncdn.com/i/teamlogos/ncaa/500-dark/155.png,-97.09614,47.92976,The Summit League[r],#00A26B,#c2c3c0,2021,272,Sum,9-17,-10.39,97.7,254,108.1,291,67.1,229,0.077,33,0.98,181,104.3,152,103.3,233,5.95,117,NA
North Dakota State,2449,Bison,North Dakota St,NDSU,North Dakota State Bison,North Dakota St,https://a.espncdn.com/i/teamlogos/ncaa/500/2449.png,https://a.espncdn.com/i/teamlogos/ncaa/500-dark/2449.png,-96.83417,46.86983,The Summit League[k],#01402A,#ffffff,NA,NA,NA,NA,NA,NA,NA,NA,NA,NA,NA,NA,NA,NA,NA,NA,NA,NA,NA,NA,NA,NA
North Florida,2454,Ospreys,North Florida,UNF,North Florida Ospreys,North Florida,https://a.espncdn.com/i/teamlogos/ncaa/500/2454.png,https://a.espncdn.com/i/teamlogos/ncaa/500-dark/2454.png,-81.66438,30.34835,ASUN Conference,#004B8D,#babcbe,2021,297,ASun,8-15,-12.34,101.9,176,114.2,352,66.5,260,0.036,94,-1.84,219,100.7,247,102.5,201,4.38,146,NA
North Texas,249,Mean Green,North Texas,UNT,North Texas Mean Green,North Texas,https://a.espncdn.com/i/teamlogos/ncaa/500/249.png,https://a.espncdn.com/i/teamlogos/ncaa/500-dark/249.png,-97.15446,33.20873,Conference USA,#00853D,#000000,2021,72,CUSA,18-10,11.76,106.7,101,95,48,62.7,350,-0.018,222,6.35,109,105,126,98.6,111,6.16,113,13
Northeastern,111,Huskies,Northeastern,NE,Northeastern Huskies,Northeastern,https://a.espncdn.com/i/teamlogos/ncaa/500/111.png,https://a.espncdn.com/i/teamlogos/ncaa/500-dark/111.png,-71.03838,42.31343,Colonial Athletic Association,#CC0001,#c2c3c0,2021,168,CAA,10-9,-0.1,98.5,242,98.6,108,67,236,0.056,58,3.03,149,105.2,119,102.2,183,15.12,24,NA
Northern Arizona,2464,Lumberjacks,N Arizona,NAU,Northern Arizona Lumberjacks,N Arizona,https://a.espncdn.com/i/teamlogos/ncaa/500/2464.png,https://a.espncdn.com/i/teamlogos/ncaa/500-dark/2464.png,-111.66183,35.18251,Big Sky Conference,#003976,#1b3069,2021,319,BSky,6-16,-14.31,98.4,244,112.7,344,63.9,339,0.038,89,1.69,169,103.4,171,101.7,170,12.79,40,NA
Northern Colorado,2458,Bears,N Colorado,UNCO,Northern Colorado Bears,N Colorado,https://a.espncdn.com/i/teamlogos/ncaa/500/2458.png,https://a.espncdn.com/i/teamlogos/ncaa/500-dark/2458.png,-104.7722,40.419,Big Sky Conference,#13558D,#ffc533,2021,228,BSky,11-11,-6.19,99,238,105.1,231,67.8,189,-0.004,192,-2.05,222,100.8,245,102.9,215,14.75,26,NA
Northern Illinois,2459,Huskies,N Illinois,NIU,Northern Illinois Huskies,N Illinois,https://a.espncdn.com/i/teamlogos/ncaa/500/2459.png,https://a.espncdn.com/i/teamlogos/ncaa/500-dark/2459.png,-88.77592,41.93753,Mid-American Conference,#F1122C,#cc0000,2021,337,MAC,3-16,-17.94,93.3,312,111.2,328,65.4,312,-0.003,187,2.98,152,105.4,117,102.4,193,-5.23,288,NA
Northern Iowa,2460,Panthers,Northern Iowa,UNI,Northern Iowa Panthers,Northern Iowa,https://a.espncdn.com/i/teamlogos/ncaa/500/2460.png,https://a.espncdn.com/i/teamlogos/ncaa/500-dark/2460.png,-92.45964,42.5126,Missouri Valley Conference[k],#473282,#ffffff,2021,163,MVC,10-15,0.34,103.3,155,103,190,68.8,139,-0.022,229,7.13,104,105.2,121,98,101,14.82,25,NA
Northern Kentucky,94,Norse,N Kentucky,NKU,Northern Kentucky Norse,N Kentucky,https://a.espncdn.com/i/teamlogos/ncaa/500/94.png,https://a.espncdn.com/i/teamlogos/ncaa/500-dark/94.png,-84.46444,39.03111,Horizon League,#000000,#eab621,2021,206,Horz,14-11,-4.17,103.8,142,108,286,64.7,323,0.056,59,-2.82,242,102.2,205,105,306,3.87,154,NA
Northwestern,77,Wildcats,Northwestern,NW,Northwestern Wildcats,Northwestern,https://a.espncdn.com/i/teamlogos/ncaa/500/77.png,https://a.espncdn.com/i/teamlogos/ncaa/500-dark/77.png,-87.6745,42.05559,Big Ten Conference,#372286,#d6cac1,2021,79,B10,9-15,10.97,104.3,132,93.4,37,68.4,160,-0.091,331,19.18,2,112.9,1,93.7,4,-18.34,328,NA
Northwestern State,2466,Demons,Northwestern St,NWST,Northwestern State Demons,Northwestern St,https://a.espncdn.com/i/teamlogos/ncaa/500/2466.png,https://a.espncdn.com/i/teamlogos/ncaa/500-dark/2466.png,-93.10945,31.74362,Southland Conference,#492F91,#ed6118,NA,NA,NA,NA,NA,NA,NA,NA,NA,NA,NA,NA,NA,NA,NA,NA,NA,NA,NA,NA,NA,NA
Notre Dame,87,Fighting Irish,Notre Dame,ND,Notre Dame Fighting Irish,Notre Dame,https://a.espncdn.com/i/teamlogos/ncaa/500/87.png,https://a.espncdn.com/i/teamlogos/ncaa/500-dark/87.png,-86.22192,41.66532,Atlantic Coast Conference[s],#00122b,#ae9142,2021,85,ACC,11-15,10.03,113.8,21,103.7,203,67.2,227,-0.029,248,14.31,42,110.7,24,96.4,65,13.83,28,NA
Oakland,2473,Golden Grizzlies,Oakland,OAK,Oakland Golden Grizzlies,Oakland,https://a.espncdn.com/i/teamlogos/ncaa/500/2473.png,https://a.espncdn.com/i/teamlogos/ncaa/500-dark/2473.png,-83.21771,42.67587,Horizon League,#04091c,#927e4d,2021,221,Horz,12-18,-5.28,103.9,140,109.2,306,69.6,104,0.046,79,2.29,164,105.4,115,103.1,227,19.69,12,NA
Ohio,195,Bobcats,Ohio,OHIO,Ohio Bobcats,Ohio,https://a.espncdn.com/i/teamlogos/ncaa/500/195.png,https://a.espncdn.com/i/teamlogos/ncaa/500-dark/195.png,-82.10931,39.32007,Mid-American Conference,#295A29,#e4bb85,2021,81,MAC,17-8,10.47,111.4,40,100.9,145,69.2,123,0.031,104,5.23,126,106.1,99,100.9,142,1.2,200,13
Ohio State,194,Buckeyes,Ohio State,OSU,Ohio State Buckeyes,Ohio State,https://a.espncdn.com/i/teamlogos/ncaa/500/194.png,https://a.espncdn.com/i/teamlogos/ncaa/500-dark/194.png,-82.99879,39.96118,Big Ten Conference,#de3129,#666666,NA,NA,NA,NA,NA,NA,NA,NA,NA,NA,NA,NA,NA,NA,NA,NA,NA,NA,NA,NA,NA,NA
Oklahoma,201,Sooners,Oklahoma,OU,Oklahoma Sooners,Oklahoma,https://a.espncdn.com/i/teamlogos/ncaa/500/201.png,https://a.espncdn.com/i/teamlogos/ncaa/500-dark/201.png,-97.44459,35.19804,Big 12 Conference,#7b0000,#cccccc,2021,39,B12,16-11,17.06,112.1,35,95.1,51,67.1,228,-0.025,238,14.29,43,109.5,47,95.2,34,1.93,192,8
Oklahoma State,197,Cowboys,Oklahoma State,OKST,Oklahoma State Cowboys,Oklahoma State,https://a.espncdn.com/i/teamlogos/ncaa/500/197.png,https://a.espncdn.com/i/teamlogos/ncaa/500-dark/197.png,-97.08079,36.12412,Big 12 Conference,#FF6500,#ff9900,NA,NA,NA,NA,NA,NA,NA,NA,NA,NA,NA,NA,NA,NA,NA,NA,NA,NA,NA,NA,NA,NA
Old Dominion,295,Monarchs,Old Dominion,ODU,Old Dominion Monarchs,Old Dominion,https://a.espncdn.com/i/teamlogos/ncaa/500/295.png,https://a.espncdn.com/i/teamlogos/ncaa/500-dark/295.png,-76.45339,36.8074,Conference USA,#00507d,#a1d2f1,2021,152,CUSA,15-8,1.2,101,196,99.9,126,67.4,217,0.14,5,2.72,157,102.8,185,100.1,135,5.55,128,NA
Ole Miss,145,Rebels,Ole Miss,MISS,Ole Miss Rebels,Ole Miss,https://a.espncdn.com/i/teamlogos/ncaa/500/145.png,https://a.espncdn.com/i/teamlogos/ncaa/500-dark/145.png,-89.53536,34.36677,Southeastern Conference,#001148,#00205b,NA,NA,NA,NA,NA,NA,NA,NA,NA,NA,NA,NA,NA,NA,NA,NA,NA,NA,NA,NA,NA,NA
Omaha,2437,Mavericks,Omaha,OMA,Omaha Mavericks,Omaha,https://a.espncdn.com/i/teamlogos/ncaa/500/2437.png,https://a.espncdn.com/i/teamlogos/ncaa/500-dark/2437.png,-96.00502,41.25778,The Summit League,#e3193e,#000000,NA,NA,NA,NA,NA,NA,NA,NA,NA,NA,NA,NA,NA,NA,NA,NA,NA,NA,NA,NA,NA,NA
Oral Roberts,198,Golden Eagles,Oral Roberts,ORU,Oral Roberts Golden Eagles,Oral Roberts,https://a.espncdn.com/i/teamlogos/ncaa/500/198.png,https://a.espncdn.com/i/teamlogos/ncaa/500-dark/198.png,-95.96681,36.13447,The Summit League,#002955,#ccb48c,2021,125,Sum,18-11,4.83,109.3,66,104.4,219,71.4,46,0.023,125,4.09,135,105.2,120,101.1,149,22.06,4,15
Oregon,2483,Ducks,Oregon,ORE,Oregon Ducks,Oregon,https://a.espncdn.com/i/teamlogos/ncaa/500/2483.png,https://a.espncdn.com/i/teamlogos/ncaa/500-dark/2483.png,-123.07046,44.04598,Pac-12 Conference,#044520,#fee123,2021,16,P12,21-7,21.85,117.2,10,95.4,55,67.2,226,0.049,72,15.2,30,110.6,26,95.4,43,3.72,160,7
Oregon State,204,Beavers,Oregon State,ORST,Oregon State Beavers,Oregon State,https://a.espncdn.com/i/teamlogos/ncaa/500/204.png,https://a.espncdn.com/i/teamlogos/ncaa/500-dark/204.png,-123.27871,44.56311,Pac-12 Conference,#c34500,#dea076,NA,NA,NA,NA,NA,NA,NA,NA,NA,NA,NA,NA,NA,NA,NA,NA,NA,NA,NA,NA,NA,NA
Pacific,279,Tigers,Pacific,PAC,Pacific Tigers,Pacific,https://a.espncdn.com/i/teamlogos/ncaa/500/279.png,https://a.espncdn.com/i/teamlogos/ncaa/500-dark/279.png,-121.28467,37.96576,West Coast Conference,#F47820,#c2c3c0,2021,117,WCC,9-9,5.48,103.5,150,98.1,98,67,237,0.021,130,9.97,84,107.6,80,97.6,89,5.11,134,NA
Penn State,213,Nittany Lions,Penn State,PSU,Penn State Nittany Lions,Penn State,https://a.espncdn.com/i/teamlogos/ncaa/500/213.png,https://a.espncdn.com/i/teamlogos/ncaa/500-dark/213.png,-77.85722,40.80395,Big Ten Conference,#00265D,#002e5c,NA,NA,NA,NA,NA,NA,NA,NA,NA,NA,NA,NA,NA,NA,NA,NA,NA,NA,NA,NA,NA,NA
Pepperdine,2492,Waves,Pepperdine,PEPP,Pepperdine Waves,Pepperdine,https://a.espncdn.com/i/teamlogos/ncaa/500/2492.png,https://a.espncdn.com/i/teamlogos/ncaa/500-dark/2492.png,-118.48843,34.06829,West Coast Conference,#003A72,#dc762f,2021,90,WCC,15-12,9.04,108.3,79,99.3,120,71.4,47,0.002,169,9.52,86,107.1,84,97.6,90,9.71,68,NA
Pittsburgh,221,Panthers,Pittsburgh,PITT,Pittsburgh Panthers,Pittsburgh,https://a.espncdn.com/i/teamlogos/ncaa/500/221.png,https://a.espncdn.com/i/teamlogos/ncaa/500-dark/221.png,-79.985,40.43615,Atlantic Coast Conference,#003263,#231f20,2021,97,ACC,10-12,8.64,108.2,81,99.5,122,68.3,165,-0.068,309,10.58,80,108.3,68,97.7,94,-4.78,281,NA
Portland,2501,Pilots,Portland,PORT,Portland Pilots,Portland,https://a.espncdn.com/i/teamlogos/ncaa/500/2501.png,https://a.espncdn.com/i/teamlogos/ncaa/500-dark/2501.png,-122.67621,45.52345,West Coast Conference,#0e034e,#f0f0f0,2021,321,WCC,6-15,-14.72,97.1,267,111.8,334,71,55,0.054,63,9.28,88,106.9,88,97.6,91,3.26,165,NA
Portland State,2502,Vikings,Portland State,PRST,Portland State Vikings,Portland State,https://a.espncdn.com/i/teamlogos/ncaa/500/2502.png,https://a.espncdn.com/i/teamlogos/ncaa/500-dark/2502.png,-122.67621,45.52345,Big Sky Conference,#00311e,#ebebeb,NA,NA,NA,NA,NA,NA,NA,NA,NA,NA,NA,NA,NA,NA,NA,NA,NA,NA,NA,NA,NA,NA
Presbyterian,2506,Blue Hose,Presbyterian,PRES,Presbyterian Blue Hose,Presbyterian,https://a.espncdn.com/i/teamlogos/ncaa/500/2506.png,https://a.espncdn.com/i/teamlogos/ncaa/500-dark/2506.png,-81.87843,34.46429,Big South Conference[t],#194896,#990134,2021,326,BSth,7-15,-15.46,90.6,337,106.1,258,65.7,297,-0.057,295,-6.62,318,99,293,105.6,324,-10.52,316,NA
Princeton,163,Tigers,Princeton,PRIN,Princeton Tigers,Princeton,https://a.espncdn.com/i/teamlogos/ncaa/500/163.png,https://a.espncdn.com/i/teamlogos/ncaa/500-dark/163.png,-74.65682,40.34285,Ivy League,#ff9408,#080808,2021,165,Ivy,0-0,0.03,104,138,103.9,209,66.6,257,0,173,-99,348,0,348,200,348,-99,331,NA
Providence,2507,Friars,Providence,PROV,Providence Friars,Providence,https://a.espncdn.com/i/teamlogos/ncaa/500/2507.png,https://a.espncdn.com/i/teamlogos/ncaa/500-dark/2507.png,-71.49978,41.75038,Big East Conference,#000000,#7d8082,2021,80,BE,13-13,10.7,107.3,96,96.6,74,66.3,270,0.001,170,13.51,49,109.4,50,95.9,54,7.01,103,NA
Purdue,2509,Boilermakers,Purdue,PUR,Purdue Boilermakers,Purdue,https://a.espncdn.com/i/teamlogos/ncaa/500/2509.png,https://a.espncdn.com/i/teamlogos/ncaa/500-dark/2509.png,-86.93668,40.41226,Big Ten Conference,#B89D29,#a4a9ad,2021,25,B10,18-10,20.33,113.3,26,92.9,34,66.1,278,0.01,148,16.61,17,111.2,16,94.6,22,5.71,122,4
Purdue Fort Wayne,2870,Mastodons,Purdue FW,PFW,Purdue Fort Wayne Mastodons,Purdue FW,https://a.espncdn.com/i/teamlogos/ncaa/500/2870.png,https://a.espncdn.com/i/teamlogos/ncaa/500-dark/2870.png,-85.09719,41.11672,Horizon League,#00378A,#f0f0f0,2021,280,Horz,8-15,-10.97,100.3,214,111.2,329,69.5,109,-0.025,240,-3.72,264,102.2,204,105.9,333,-19.28,329,NA
Radford,2515,Highlanders,Radford,RAD,Radford Highlanders,Radford,https://a.espncdn.com/i/teamlogos/ncaa/500/2515.png,https://a.espncdn.com/i/teamlogos/ncaa/500-dark/2515.png,-80.5495,37.13902,Big South Conference,#BC1515,#c2c3c0,2021,243,BSth,15-12,-7.12,97.7,255,104.8,225,63.5,346,0.023,122,-4.51,281,100.1,267,104.6,291,8.22,84,NA
Rhode Island,227,Rams,Rhode Island,URI,Rhode Island Rams,Rhode Island,https://a.espncdn.com/i/teamlogos/ncaa/500/227.png,https://a.espncdn.com/i/teamlogos/ncaa/500-dark/227.png,-71.54812,41.48621,Atlantic 10 Conference,#091f3f,#5ab3e8,2021,111,A10,10-15,7.21,104.7,127,97.5,89,69,134,-0.109,344,9.4,87,106.6,90,97.2,85,11.37,51,NA
Rice,242,Owls,Rice,RICE,Rice Owls,Rice,https://a.espncdn.com/i/teamlogos/ncaa/500/242.png,https://a.espncdn.com/i/teamlogos/ncaa/500-dark/242.png,-95.31593,29.69394,Conference USA,#003D7D,#d1d5d8,2021,188,CUSA,15-13,-2.31,103.9,141,106.2,261,69.3,114,0.039,88,2.38,162,102.1,207,99.7,131,-11.86,319,NA
Richmond,257,Spiders,Richmond,RICH,Richmond Spiders,Richmond,https://a.espncdn.com/i/teamlogos/ncaa/500/257.png,https://a.espncdn.com/i/teamlogos/ncaa/500-dark/257.png,-77.53823,37.57557,Atlantic 10 Conference,#9e0712,#b90b2e,2021,65,A10,14-9,12.78,110.9,46,98.1,99,68.2,169,-0.061,298,9.22,89,107.2,83,97.9,98,10.89,54,2
Rider,2520,Broncs,Rider,RID,Rider Broncs,Rider,https://a.espncdn.com/i/teamlogos/ncaa/500/2520.png,https://a.espncdn.com/i/teamlogos/ncaa/500-dark/2520.png,-74.73928,40.27908,Metro Atlantic Athletic Conference,#a80532,#ebebeb,2021,316,MAAC,6-17,-14.19,99.5,229,113.7,350,67.6,205,-0.041,269,-4.09,273,97.4,326,101.4,158,10.52,58,NA
Rutgers,164,Scarlet Knights,Rutgers,RUTG,Rutgers Scarlet Knights,Rutgers,https://a.espncdn.com/i/teamlogos/ncaa/500/164.png,https://a.espncdn.com/i/teamlogos/ncaa/500-dark/164.png,-74.40737,40.47733,Big Ten Conference,#d21034,#ffffff,2021,38,B10,16-12,17.48,108.1,82,90.6,16,67.4,214,0.027,113,17.99,7,112.4,3,94.4,19,-5.69,294,10
Sacramento State,16,Hornets,Sacramento St,SAC,Sacramento State Hornets,Sacramento St,https://a.espncdn.com/i/teamlogos/ncaa/500/16.png,https://a.espncdn.com/i/teamlogos/ncaa/500-dark/16.png,-121.42299,38.55904,Big Sky Conference,#00573C,#cdb97d,NA,NA,NA,NA,NA,NA,NA,NA,NA,NA,NA,NA,NA,NA,NA,NA,NA,NA,NA,NA,NA,NA
Sacred Heart,2529,Pioneers,Sacred Heart,SHU,Sacred Heart Pioneers,Sacred Heart,https://a.espncdn.com/i/teamlogos/ncaa/500/2529.png,https://a.espncdn.com/i/teamlogos/ncaa/500-dark/2529.png,-73.29595,41.20093,Northeast Conference,#a40012,#c29472,2021,324,NEC,9-9,-15.26,98.2,248,113.5,348,66.2,272,0.13,6,-7.28,326,98.1,317,105.4,319,22.79,2,NA
Saint Louis,139,Billikens,Saint Louis,SLU,Saint Louis Billikens,Saint Louis,https://a.espncdn.com/i/teamlogos/ncaa/500/139.png,https://a.espncdn.com/i/teamlogos/ncaa/500-dark/139.png,-90.23372,38.63533,Atlantic 10 Conference,#00539C,#ebebeb,2021,53,A10,14-7,14.37,110.4,50,96,65,68,184,-0.037,263,5.58,121,104.7,133,99.1,116,-1.43,244,1
Saint Mary's,2608,Gaels,Saint Mary's,SMC,Saint Mary's Gaels,Saint Mary's,https://a.espncdn.com/i/teamlogos/ncaa/500/2608.png,https://a.espncdn.com/i/teamlogos/ncaa/500-dark/2608.png,-122.10922,37.84279,West Coast Conference,#003768,#d02f35,2021,75,WCC,14-10,11.68,101.8,178,90.2,13,62.9,348,0.037,92,10.85,76,108.8,62,98,100,2.91,168,2
Saint Peter's,2612,Peacocks,Saint Peter's,SPU,Saint Peter's Peacocks,Saint Peter's,https://a.espncdn.com/i/teamlogos/ncaa/500/2612.png,https://a.espncdn.com/i/teamlogos/ncaa/500-dark/2612.png,-73.87989,40.77331,Metro Atlantic Athletic Conference,#004CC2,#000000,2021,222,MAAC,14-11,-5.37,90.4,339,95.8,61,66.7,253,-0.006,197,-6.37,316,98.3,311,104.6,294,3.94,153,NA
Samford,2535,Bulldogs,Samford,SAM,Samford Bulldogs,Samford,https://a.espncdn.com/i/teamlogos/ncaa/500/2535.png,https://a.espncdn.com/i/teamlogos/ncaa/500-dark/2535.png,-86.80082,33.47177,Southern Conference,#005485,#bc0023,2021,264,SC,6-13,-9.49,96.5,276,106,257,72.7,17,-0.035,255,2.79,155,104.1,157,101.3,156,-3.32,262,NA
San Diego,301,Toreros,San Diego,USD,San Diego Toreros,San Diego,https://a.espncdn.com/i/teamlogos/ncaa/500/301.png,https://a.espncdn.com/i/teamlogos/ncaa/500-dark/301.png,-117.2342,32.88477,West Coast Conference[c],#2f99d4,#2f99d4,2021,195,WCC,3-11,-3.22,97.4,259,100.7,137,70.2,84,-0.025,239,10.79,77,108.1,71,97.3,87,9.58,69,NA
San Diego State,21,Aztecs,San Diego State,SDSU,San Diego State Aztecs,San Diego State,https://a.espncdn.com/i/teamlogos/ncaa/500/21.png,https://a.espncdn.com/i/teamlogos/ncaa/500-dark/21.png,-117.2342,32.88477,Mountain West Conference,#BF2C37,#a8996e,NA,NA,NA,NA,NA,NA,NA,NA,NA,NA,NA,NA,NA,NA,NA,NA,NA,NA,NA,NA,NA,NA
San Francisco,2539,Dons,San Francisco,SF,San Francisco Dons,San Francisco,https://a.espncdn.com/i/teamlogos/ncaa/500/2539.png,https://a.espncdn.com/i/teamlogos/ncaa/500-dark/2539.png,-122.44826,37.78607,West Coast Conference,#22523F,#fbcd3c,2021,93,WCC,11-14,8.86,106.9,100,98,96,67.7,197,-0.104,342,8.22,101,106.8,89,98.5,110,5.87,120,NA
Santa Clara,2541,Broncos,Santa Clara,SCU,Santa Clara Broncos,Santa Clara,https://a.espncdn.com/i/teamlogos/ncaa/500/2541.png,https://a.espncdn.com/i/teamlogos/ncaa/500-dark/2541.png,-122.04852,37.31698,West Coast Conference,#690b0b,#101010,2021,145,WCC,12-8,1.94,100.4,208,98.5,105,70.4,81,0.147,3,5.78,119,104.5,143,98.7,112,0.73,205,NA
Seton Hall,2550,Pirates,Seton Hall,HALL,Seton Hall Pirates,Seton Hall,https://a.espncdn.com/i/teamlogos/ncaa/500/2550.png,https://a.espncdn.com/i/teamlogos/ncaa/500-dark/2550.png,-74.24737,40.7426,Big East Conference,#0857B1,#8a8d8f,2021,54,BE,14-13,14.36,110.3,51,95.9,63,66.5,264,-0.027,245,14.43,40,109.7,41,95.3,40,11.86,44,NA
Siena,2561,Saints,Siena,SIE,Siena Saints,Siena,https://a.espncdn.com/i/teamlogos/ncaa/500/2561.png,https://a.espncdn.com/i/teamlogos/ncaa/500-dark/2561.png,-84.01467,41.90616,Metro Atlantic Athletic Conference,#037961,#eea60f,2021,186,MAAC,12-5,-2.05,99.8,224,101.8,163,66.2,273,-0.057,296,-7.28,325,96.7,332,104,262,-99,331,NA
SMU,2567,Mustangs,SMU,SMU,SMU Mustangs,SMU,https://a.espncdn.com/i/teamlogos/ncaa/500/2567.png,https://a.espncdn.com/i/teamlogos/ncaa/500-dark/2567.png,-96.78083,32.8404,American Athletic Conference,#E32F38,#ecdcb9,2021,56,Amer,11-6,14.07,110.8,47,96.8,76,68.8,141,-0.012,210,8.72,95,105,127,96.2,64,-8.32,310,3
South Alabama,6,Jaguars,South Alabama,USA,South Alabama Jaguars,South Alabama,https://a.espncdn.com/i/teamlogos/ncaa/500/6.png,https://a.espncdn.com/i/teamlogos/ncaa/500-dark/6.png,-88.04305,30.69436,Sun Belt Conference,#003E7E,#000000,2021,217,SB,17-11,-5.08,103.3,157,108.4,294,66.5,261,0.043,84,-3.09,247,99.2,290,102.3,189,-1.13,238,NA
South Carolina,2579,Gamecocks,South Carolina,SC,South Carolina Gamecocks,South Carolina,https://a.espncdn.com/i/teamlogos/ncaa/500/2579.png,https://a.espncdn.com/i/teamlogos/ncaa/500-dark/2579.png,-81.02648,33.99904,Southeastern Conference,#670010,#000000,2021,124,SEC,6-15,4.96,103.9,139,98.9,113,74.6,3,-0.055,293,15.42,29,109.7,44,94.2,14,9.09,74,NA
South Carolina State,2569,Bulldogs,SC State,SCST,South Carolina State Bulldogs,SC State,https://a.espncdn.com/i/teamlogos/ncaa/500/2569.png,https://a.espncdn.com/i/teamlogos/ncaa/500-dark/2569.png,-80.85565,33.49182,Mid-Eastern Athletic Conference,#7d1315,#104897,NA,NA,NA,NA,NA,NA,NA,NA,NA,NA,NA,NA,NA,NA,NA,NA,NA,NA,NA,NA,NA,NA
South Dakota,233,Coyotes,South Dakota,SDAK,South Dakota Coyotes,South Dakota,https://a.espncdn.com/i/teamlogos/ncaa/500/233.png,https://a.espncdn.com/i/teamlogos/ncaa/500-dark/233.png,-96.92421,42.78472,The Summit League[k],#CD1241,#f0f0f0,2021,159,Sum,14-11,0.64,107.3,97,106.6,267,68.9,136,-0.015,216,0.22,191,103.3,173,103.1,226,10.69,57,NA
South Dakota State,2571,Jackrabbits,South Dakota St,SDST,South Dakota State Jackrabbits,South Dakota St,https://a.espncdn.com/i/teamlogos/ncaa/500/2571.png,https://a.espncdn.com/i/teamlogos/ncaa/500-dark/2571.png,-96.78839,44.31941,The Summit League[k],#005DAB,#c33139,NA,NA,NA,NA,NA,NA,NA,NA,NA,NA,NA,NA,NA,NA,NA,NA,NA,NA,NA,NA,NA,NA
South Florida,58,Bulls,South Florida,USF,South Florida Bulls,South Florida,https://a.espncdn.com/i/teamlogos/ncaa/500/58.png,https://a.espncdn.com/i/teamlogos/ncaa/500-dark/58.png,-82.41537,28.06263,American Athletic Conference,#004A36,#231f20,2021,170,Amer,9-13,-0.14,100.8,200,101,147,66.8,247,0.049,73,10.01,83,106.1,98,96.1,61,2.23,185,NA
Southern,2582,Jaguars,Southern,SOU,Southern Jaguars,Southern,https://a.espncdn.com/i/teamlogos/ncaa/500/2582.png,https://a.espncdn.com/i/teamlogos/ncaa/500-dark/2582.png,-91.10355,30.38261,Southwestern Athletic Conference,#004B97,#ffc82d,2021,308,SWAC,8-11,-12.84,91.5,329,104.3,216,70.6,71,-0.075,318,-12.47,345,93.4,345,105.9,331,17.22,14,NA
Southern Miss,2572,Golden Eagles,Southern Miss,USM,Southern Miss Golden Eagles,Southern Miss,https://a.espncdn.com/i/teamlogos/ncaa/500/2572.png,https://a.espncdn.com/i/teamlogos/ncaa/500-dark/2572.png,-89.33197,31.32694,Conference USA,#FFAA3C,#ffc423,2021,256,CUSA,8-17,-8.19,92.9,317,101.1,149,67.4,218,-0.078,320,1.08,178,102.1,208,101,146,-5.63,292,NA
Southern Utah,253,Thunderbirds,Southern Utah,SUU,Southern Utah Thunderbirds,Southern Utah,https://a.espncdn.com/i/teamlogos/ncaa/500/253.png,https://a.espncdn.com/i/teamlogos/ncaa/500-dark/253.png,-113.06104,37.70893,Big Sky Conference[u],#d10000,#c2c3c0,2021,135,BSky,20-4,3.13,108.5,74,105.4,240,69.9,92,0.082,28,-3.56,255,100.9,243,104.5,282,-0.64,228,NA
St. Bonaventure,179,Bonnies,St. Bonaventure,SBU,St. Bonaventure Bonnies,St. Bonaventure,https://a.espncdn.com/i/teamlogos/ncaa/500/179.png,https://a.espncdn.com/i/teamlogos/ncaa/500-dark/179.png,-78.48252,42.07979,Atlantic 10 Conference,#70261D,#000000,2021,32,A10,16-5,19.04,110,55,91,20,64.8,320,0.016,140,8.53,98,106.6,92,98,103,2.44,180,9
St. John's,2599,Red Storm,St. John's,SJU,St. John's Red Storm,St. John's,https://a.espncdn.com/i/teamlogos/ncaa/500/2599.png,https://a.espncdn.com/i/teamlogos/ncaa/500-dark/2599.png,-73.79513,40.72205,Big East Conference,#d10000,#101010,2021,69,BE,16-11,12.26,111.2,42,98.9,112,73.4,10,0.014,144,11.04,74,107.6,79,96.6,68,-2.94,259,NA
Stanford,24,Cardinal,Stanford,STAN,Stanford Cardinal,Stanford,https://a.espncdn.com/i/teamlogos/ncaa/500/24.png,https://a.espncdn.com/i/teamlogos/ncaa/500-dark/24.png,-122.17024,37.42716,Pac-12 Conference,#A80532,#ffffff,2021,57,P12,14-13,13.78,106,110,92.2,28,69.2,120,0.022,126,16.46,18,111.2,17,94.7,25,9.76,67,NA
Stephen F. Austin,2617,Lumberjacks,SF Austin,SFA,Stephen F. Austin Lumberjacks,SF Austin,https://a.espncdn.com/i/teamlogos/ncaa/500/2617.png,https://a.espncdn.com/i/teamlogos/ncaa/500-dark/2617.png,-94.6821,31.64183,Southland Conference[a],#393996,#bec0c2,2021,151,Slnd,16-5,1.29,103.5,152,102.2,174,69.7,102,0.047,76,-7.61,329,98.1,319,105.7,325,-2.05,250,NA
Stetson,56,Hatters,Stetson,STET,Stetson Hatters,Stetson,https://a.espncdn.com/i/teamlogos/ncaa/500/56.png,https://a.espncdn.com/i/teamlogos/ncaa/500-dark/56.png,-81.31726,29.04371,ASUN Conference[c],#0a5640,#56854e,2021,233,ASun,12-15,-6.46,100.3,212,106.8,270,67.8,194,-0.006,196,-2.07,224,101.7,221,103.8,252,8.03,91,NA
Stony Brook,2619,Seawolves,Stony Brook,STBK,Stony Brook Seawolves,Stony Brook,https://a.espncdn.com/i/teamlogos/ncaa/500/2619.png,https://a.espncdn.com/i/teamlogos/ncaa/500-dark/2619.png,-73.12455,40.91732,America East Conference,#990000,#000000,2021,236,AE,9-14,-6.61,94.7,295,101.3,157,66.4,268,-0.09,330,-3.12,248,100.2,262,103.3,232,2.2,186,NA
Syracuse,183,Orange,Syracuse,SYR,Syracuse Orange,Syracuse,https://a.espncdn.com/i/teamlogos/ncaa/500/183.png,https://a.espncdn.com/i/teamlogos/ncaa/500-dark/183.png,-76.14742,43.04812,Atlantic Coast Conference,#F37321,#0d1d37,2021,42,ACC,18-10,16.75,113.7,24,96.9,77,68.6,151,0.029,109,12.94,58,109.4,48,96.5,66,2.09,188,11
TCU,2628,Horned Frogs,TCU,TCU,TCU Horned Frogs,TCU,https://a.espncdn.com/i/teamlogos/ncaa/500/2628.png,https://a.espncdn.com/i/teamlogos/ncaa/500-dark/2628.png,-97.33335,32.75152,Big 12 Conference,#3C377D,#f1f2f3,2021,140,B12,12-14,2.81,104.7,128,101.9,166,66.6,258,0.089,24,11.88,71,107.9,77,96,59,0.6,208,NA
Temple,218,Owls,Temple,TEM,Temple Owls,Temple,https://a.espncdn.com/i/teamlogos/ncaa/500/218.png,https://a.espncdn.com/i/teamlogos/ncaa/500-dark/218.png,-75.15296,39.98095,American Athletic Conference,#A80532,#a7a9ac,2021,143,Amer,5-11,2.7,101.5,189,98.8,110,68.6,148,-0.092,332,8.84,94,105.8,102,97,79,-13.51,324,NA
Tennessee,2633,Volunteers,Tennessee,TENN,Tennessee Volunteers,Tennessee,https://a.espncdn.com/i/teamlogos/ncaa/500/2633.png,https://a.espncdn.com/i/teamlogos/ncaa/500-dark/2633.png,-84.04764,35.92372,Southeastern Conference,#EE9627,#ffffff,2021,28,SEC,18-9,19.95,108,85,88.1,5,67.1,232,-0.013,215,13.11,56,108.9,60,95.8,53,-0.34,221,5
Tennessee State,2634,Tigers,Tennessee State,TNST,Tennessee State Tigers,Tennessee State,https://a.espncdn.com/i/teamlogos/ncaa/500/2634.png,https://a.espncdn.com/i/teamlogos/ncaa/500-dark/2634.png,-86.78694,36.16339,Ohio Valley Conference,#383C84,#f0f0f0,NA,NA,NA,NA,NA,NA,NA,NA,NA,NA,NA,NA,NA,NA,NA,NA,NA,NA,NA,NA,NA,NA
Tennessee Tech,2635,Golden Eagles,Tennessee Tech,TNTC,Tennessee Tech Golden Eagles,Tennessee Tech,https://a.espncdn.com/i/teamlogos/ncaa/500/2635.png,https://a.espncdn.com/i/teamlogos/ncaa/500-dark/2635.png,-85.5245,36.14464,Ohio Valley Conference,#5A4099,#ffde00,2021,313,OVC,5-22,-13.9,96,281,109.9,316,68.8,142,-0.055,292,0.13,192,102.4,200,102.2,188,10.77,56,NA
Texas,251,Longhorns,Texas,TEX,Texas Longhorns,Texas,https://a.espncdn.com/i/teamlogos/ncaa/500/251.png,https://a.espncdn.com/i/teamlogos/ncaa/500-dark/251.png,-97.7368,30.30753,Big 12 Conference,#EE7524,#f0f0f0,2021,26,B12,19-8,20.31,113.1,28,92.8,31,68.6,146,-0.004,190,14.52,38,109.2,54,94.7,23,8.2,85,3
Texas A&M,245,Aggies,Texas A&M,TA&M,Texas A&M Aggies,Texas A&M,https://a.espncdn.com/i/teamlogos/ncaa/500/245.png,https://a.espncdn.com/i/teamlogos/ncaa/500-dark/245.png,-96.3344,30.628,Southeastern Conference,#5C0025,#ffffff,2021,137,SEC,8-10,3.05,101.9,175,98.9,111,64.3,334,0.018,135,9.1,91,107,86,97.9,97,-5.63,293,NA
Texas Southern,2640,Tigers,Texas Southern,TXSO,Texas Southern Tigers,Texas Southern,https://a.espncdn.com/i/teamlogos/ncaa/500/2640.png,https://a.espncdn.com/i/teamlogos/ncaa/500-dark/2640.png,-95.31593,29.69394,Southwestern Athletic Conference,#6A0403,#ebebeb,2021,208,SWAC,17-9,-4.37,99.8,221,104.2,212,71.5,45,0.059,54,-7.73,331,95.5,341,103.2,230,14.62,27,16
Texas State,326,Bobcats,Texas State,TXST,Texas State Bobcats,Texas State,https://a.espncdn.com/i/teamlogos/ncaa/500/326.png,https://a.espncdn.com/i/teamlogos/ncaa/500-dark/326.png,-97.93945,29.88994,Sun Belt Conference,#4e1719,#b4975a,NA,NA,NA,NA,NA,NA,NA,NA,NA,NA,NA,NA,NA,NA,NA,NA,NA,NA,NA,NA,NA,NA
Texas Tech,2641,Red Raiders,Texas Tech,TTU,Texas Tech Red Raiders,Texas Tech,https://a.espncdn.com/i/teamlogos/ncaa/500/2641.png,https://a.espncdn.com/i/teamlogos/ncaa/500-dark/2641.png,-101.88795,33.59231,Big 12 Conference,#C80025,#231f20,2021,17,B12,18-11,21.81,112.7,32,90.9,18,65.1,316,-0.099,340,12.84,59,108.5,67,95.7,51,-4.88,283,6
The Citadel,2643,Bulldogs,The Citadel,CIT,The Citadel Bulldogs,The Citadel,https://a.espncdn.com/i/teamlogos/ncaa/500/2643.png,https://a.espncdn.com/i/teamlogos/ncaa/500-dark/2643.png,-79.96013,32.78919,Southern Conference,#002b5c,#f0f0f0,2021,218,SC,13-12,-5.13,104,136,109.1,305,74.2,4,0.064,50,2.53,161,104.2,154,101.6,167,-10.53,317,NA
Toledo,2649,Rockets,Toledo,TOL,Toledo Rockets,Toledo,https://a.espncdn.com/i/teamlogos/ncaa/500/2649.png,https://a.espncdn.com/i/teamlogos/ncaa/500-dark/2649.png,-83.79079,41.60103,Mid-American Conference,#ffffff,#ffd51d,2021,74,MAC,21-9,11.71,114.3,19,102.6,182,68.7,143,-0.024,236,3.03,150,104.8,130,101.7,172,5.9,118,3
Towson,119,Tigers,Towson,TOW,Towson Tigers,Towson,https://a.espncdn.com/i/teamlogos/ncaa/500/119.png,https://a.espncdn.com/i/teamlogos/ncaa/500-dark/119.png,-76.60608,39.39243,Colonial Athletic Association,#FFC229,#000000,2021,298,CAA,4-14,-12.35,99,236,111.4,332,65.8,294,-0.022,230,-0.5,196,102.4,201,102.9,214,8.63,78,NA
Troy,2653,Trojans,Troy,TROY,Troy Trojans,Troy,https://a.espncdn.com/i/teamlogos/ncaa/500/2653.png,https://a.espncdn.com/i/teamlogos/ncaa/500-dark/2653.png,-85.96995,31.80877,Sun Belt Conference,#AE0210,#88898c,2021,305,SB,11-17,-12.62,92.4,322,105,228,68.2,173,0.036,93,-0.78,199,101.2,231,102,177,3.59,162,NA
Tulane,2655,Green Wave,Tulane,TULN,Tulane Green Wave,Tulane,https://a.espncdn.com/i/teamlogos/ncaa/500/2655.png,https://a.espncdn.com/i/teamlogos/ncaa/500-dark/2655.png,-90.07507,29.95465,American Athletic Conference,#005837,#3baf29,2021,144,Amer,10-13,1.95,99.8,225,97.8,93,67.4,221,0.013,145,7.32,102,104.4,145,97.1,80,-14.54,325,NA
Tulsa,202,Golden Hurricane,Tulsa,TLSA,Tulsa Golden Hurricane,Tulsa,https://a.espncdn.com/i/teamlogos/ncaa/500/202.png,https://a.espncdn.com/i/teamlogos/ncaa/500-dark/202.png,-95.96681,36.13447,American Athletic Conference,#004371,#ee3b33,2021,121,Amer,11-12,5.09,102.6,165,97.5,91,65.6,303,-0.024,235,8.99,93,105.6,109,96.7,70,-3.27,261,NA
UAB,5,Blazers,UAB,UAB,UAB Blazers,UAB,https://a.espncdn.com/i/teamlogos/ncaa/500/5.png,https://a.espncdn.com/i/teamlogos/ncaa/500-dark/5.png,-86.80249,33.52066,Conference USA,#054338,#ffc845,2021,102,CUSA,22-7,8.44,103.5,153,95,50,67,238,0.005,162,-1.59,216,100.1,265,101.7,168,-12.09,321,NA
UC Davis,302,Aggies,UC Davis,UCD,UC Davis Aggies,UC Davis,https://a.espncdn.com/i/teamlogos/ncaa/500/302.png,https://a.espncdn.com/i/teamlogos/ncaa/500-dark/302.png,-121.76247,38.54359,Big West Conference[d],#183563,#bc9305,2021,209,BW,10-8,-4.37,98,253,102.3,181,69.2,119,0.087,25,-1.01,203,101.7,222,102.7,210,-0.67,229,NA
UC Irvine,300,Anteaters,UC Irvine,UCI,UC Irvine Anteaters,UC Irvine,https://a.espncdn.com/i/teamlogos/ncaa/500/300.png,https://a.espncdn.com/i/teamlogos/ncaa/500-dark/300.png,-117.84098,33.64842,Big West Conference,#002B5C,#fec52e,2021,107,BW,18-9,7.88,101.3,192,93.4,38,67.4,222,0.031,103,3.13,147,103.6,167,100.5,141,6.68,107,NA
UC Riverside,27,Highlanders,UC Riverside,UCR,UC Riverside Highlanders,UC Riverside,https://a.espncdn.com/i/teamlogos/ncaa/500/27.png,https://a.espncdn.com/i/teamlogos/ncaa/500-dark/27.png,-117.32773,33.97412,Big West Conference,#14234F,#000000,2021,106,BW,14-8,8.03,103.6,147,95.6,58,66.7,254,-0.066,305,0.84,182,102.6,192,101.8,174,0.78,204,NA
UC Santa Barbara,2540,Gauchos,UCSB,UCSB,UC Santa Barbara Gauchos,UCSB,https://a.espncdn.com/i/teamlogos/ncaa/500/2540.png,https://a.espncdn.com/i/teamlogos/ncaa/500-dark/2540.png,-119.84714,34.4134,Big West Conference,#1D1160,#fdb813,2021,58,BW,22-5,13.63,109.9,56,96.2,69,65.6,301,0.03,108,1.8,168,102.8,187,101,145,4.03,151,12
UCF,2116,Knights,UCF,UCF,UCF Knights,UCF,https://a.espncdn.com/i/teamlogos/ncaa/500/2116.png,https://a.espncdn.com/i/teamlogos/ncaa/500-dark/2116.png,-81.37924,28.53834,American Athletic Conference,#000000,#231f20,2021,100,Amer,11-12,8.54,106.5,103,97.9,95,67.2,225,0.053,64,12.76,60,107.1,85,94.3,16,24.7,1,NA
UCLA,26,Bruins,UCLA,UCLA,UCLA Bruins,UCLA,https://a.espncdn.com/i/teamlogos/ncaa/500/26.png,https://a.espncdn.com/i/teamlogos/ncaa/500-dark/26.png,-118.1686,34.066,Pac-12 Conference,#005C8E,#ffc72c,2021,13,P12,22-10,22.43,116.9,11,94.5,46,63.8,341,0.028,110,17.38,11,111.3,14,93.9,6,9.87,66,11
UConn,41,Huskies,UConn,CONN,UConn Huskies,UConn,https://a.espncdn.com/i/teamlogos/ncaa/500/41.png,https://a.espncdn.com/i/teamlogos/ncaa/500-dark/41.png,-72.25369,41.80926,Big East Conference,#001d40,#f1f2f3,NA,NA,NA,NA,NA,NA,NA,NA,NA,NA,NA,NA,NA,NA,NA,NA,NA,NA,NA,NA,NA,NA
UIC,82,Flames,UIC,UIC,UIC Flames,UIC,https://a.espncdn.com/i/teamlogos/ncaa/500/82.png,https://a.espncdn.com/i/teamlogos/ncaa/500-dark/82.png,-87.64922,41.87198,Horizon League,#234077,#c30031,NA,NA,NA,NA,NA,NA,NA,NA,NA,NA,NA,NA,NA,NA,NA,NA,NA,NA,NA,NA,NA,NA
UMass,113,Minutemen,UMass,MASS,UMass Minutemen,UMass,https://a.espncdn.com/i/teamlogos/ncaa/500/113.png,https://a.espncdn.com/i/teamlogos/ncaa/500-dark/113.png,-72.51852,42.36723,Atlantic 10 Conference[n],#880007,#000000,NA,NA,NA,NA,NA,NA,NA,NA,NA,NA,NA,NA,NA,NA,NA,NA,NA,NA,NA,NA,NA,NA
UMass Lowell,2349,River Hawks,UMass Lowell,UML,UMass Lowell River Hawks,UMass Lowell,https://a.espncdn.com/i/teamlogos/ncaa/500/2349.png,https://a.espncdn.com/i/teamlogos/ncaa/500-dark/2349.png,-71.32589,42.6537,America East Conference,#00529C,#cf1f2f,2021,230,AE,11-12,-6.29,99.8,223,106.1,259,69,131,0.055,60,-1.81,218,100.3,259,102.1,182,12.68,42,NA
UMBC,2378,Retrievers,UMBC,UMBC,UMBC Retrievers,UMBC,https://a.espncdn.com/i/teamlogos/ncaa/500/2378.png,https://a.espncdn.com/i/teamlogos/ncaa/500-dark/2378.png,-76.71168,39.25543,America East Conference,#000000,#ad860a,2021,172,AE,14-6,-0.15,100.6,203,100.8,139,67.5,208,-0.013,214,-4.6,283,98.8,301,103.4,235,-3.4,264,NA
UNC Asheville,2427,Bulldogs,UNC Asheville,UNCA,UNC Asheville Bulldogs,UNC Asheville,https://a.espncdn.com/i/teamlogos/ncaa/500/2427.png,https://a.espncdn.com/i/teamlogos/ncaa/500-dark/2427.png,-82.56526,35.61662,Big South Conference,#156199,#c2c3c0,2021,244,BSth,10-10,-7.13,100.6,204,107.8,283,68.2,170,-0.008,202,-5.46,299,99.4,286,104.9,303,-4.57,279,NA
UNC Greensboro,2430,Spartans,UNC Greensboro,UNCG,UNC Greensboro Spartans,UNC Greensboro,https://a.espncdn.com/i/teamlogos/ncaa/500/2430.png,https://a.espncdn.com/i/teamlogos/ncaa/500-dark/2430.png,-79.81114,36.07097,Southern Conference,#003559,#ffd90a,2021,108,SC,21-9,7.79,103.6,146,95.8,62,68,183,0.003,166,1.48,171,103.8,163,102.3,190,-2.78,257,13
UNC Wilmington,350,Seahawks,UNC Wilmington,UNCW,UNC Wilmington Seahawks,UNC Wilmington,https://a.espncdn.com/i/teamlogos/ncaa/500/350.png,https://a.espncdn.com/i/teamlogos/ncaa/500-dark/350.png,-77.94471,34.22573,Colonial Athletic Association,#1d2f68,#00665e,2021,248,CAA,7-10,-7.42,102.1,173,109.5,309,69,130,-0.122,350,-4.61,284,100.1,264,104.7,297,-2.07,251,NA
UNLV,2439,Rebels,UNLV,UNLV,UNLV Rebels,UNLV,https://a.espncdn.com/i/teamlogos/ncaa/500/2439.png,https://a.espncdn.com/i/teamlogos/ncaa/500-dark/2439.png,-115.14167,36.10775,Mountain West Conference,#000000,#c2c4c6,2021,176,MWC,12-15,-0.66,103.7,143,104.4,217,66.1,281,-0.037,261,5.3,125,104.3,150,99,115,13.13,33,NA
USC,30,Trojans,USC,USC,USC Trojans,USC,https://a.espncdn.com/i/teamlogos/ncaa/500/30.png,https://a.espncdn.com/i/teamlogos/ncaa/500-dark/30.png,-118.1686,34.066,Pac-12 Conference,#AE2531,#ffc72c,2021,6,P12,25-8,27.58,115.7,14,88.1,6,67,235,0.001,171,16.27,21,111.1,19,94.8,28,6.28,111,6
UT Arlington,250,Mavericks,UT Arlington,UTA,UT Arlington Mavericks,UT Arlington,https://a.espncdn.com/i/teamlogos/ncaa/500/250.png,https://a.espncdn.com/i/teamlogos/ncaa/500-dark/250.png,-97.12668,32.7293,Sun Belt Conference,#004b7c,#f58024,2021,253,SB,13-13,-7.87,98.2,246,106.1,260,69.2,118,0.051,67,-2.71,240,99.8,276,102.5,196,12.89,37,NA
UT Martin,2630,Skyhawks,UT Martin,UTM,UT Martin Skyhawks,UT Martin,https://a.espncdn.com/i/teamlogos/ncaa/500/2630.png,https://a.espncdn.com/i/teamlogos/ncaa/500-dark/2630.png,-88.86423,36.34145,Ohio Valley Conference,#FF6700,#102a5c,NA,NA,NA,NA,NA,NA,NA,NA,NA,NA,NA,NA,NA,NA,NA,NA,NA,NA,NA,NA,NA,NA
Utah,254,Utes,Utah,UTAH,Utah Utes,Utah,https://a.espncdn.com/i/teamlogos/ncaa/500/254.png,https://a.espncdn.com/i/teamlogos/ncaa/500-dark/254.png,-111.84879,40.76495,Pac-12 Conference,#890012,#7e8083,2021,44,P12,12-13,15.78,112.7,31,97,78,67.6,203,-0.077,319,15.67,25,110.5,29,94.8,27,-5.46,290,NA
Utah State,328,Aggies,Utah State,USU,Utah State Aggies,Utah State,https://a.espncdn.com/i/teamlogos/ncaa/500/328.png,https://a.espncdn.com/i/teamlogos/ncaa/500-dark/328.png,-111.86575,41.73704,Mountain West Conference,#003263,#949ca1,NA,NA,NA,NA,NA,NA,NA,NA,NA,NA,NA,NA,NA,NA,NA,NA,NA,NA,NA,NA,NA,NA
Utah Valley,3084,Wolverines,Utah Valley,UVU,Utah Valley Wolverines,Utah Valley,https://a.espncdn.com/i/teamlogos/ncaa/500/3084.png,https://a.espncdn.com/i/teamlogos/ncaa/500-dark/3084.png,-111.7295,40.31116,Western Athletic Conference,#004812,#e1c736,2021,199,WAC,11-11,-3.75,100.5,207,104.3,215,70.2,85,0.007,157,0.6,189,103.2,176,102.6,207,12.48,43,NA
UTEP,2638,Miners,UTEP,UTEP,UTEP Miners,UTEP,https://a.espncdn.com/i/teamlogos/ncaa/500/2638.png,https://a.espncdn.com/i/teamlogos/ncaa/500-dark/2638.png,-106.5061,31.77761,Conference USA,#ff8200,#041e42,2021,136,CUSA,12-12,3.09,103.3,156,100.2,131,67.8,191,-0.065,304,5.18,127,104,160,98.8,113,20.55,8,NA
UTSA,2636,Roadrunners,UTSA,UTSA,UTSA Roadrunners,UTSA,https://a.espncdn.com/i/teamlogos/ncaa/500/2636.png,https://a.espncdn.com/i/teamlogos/ncaa/500-dark/2636.png,-98.49363,29.42412,Conference USA,#002A5C,#f47321,2021,160,CUSA,15-11,0.57,106.5,105,105.9,252,71.8,37,0.021,129,3.1,148,102.6,191,99.5,127,5.87,119,NA
Vanderbilt,238,Commodores,Vanderbilt,VAN,Vanderbilt Commodores,Vanderbilt,https://a.espncdn.com/i/teamlogos/ncaa/500/238.png,https://a.espncdn.com/i/teamlogos/ncaa/500-dark/238.png,-86.78694,36.16339,Southeastern Conference,#000000,#231f20,2021,104,SEC,9-16,8.25,108.9,71,100.6,136,68.6,147,-0.128,352,12.7,62,107.9,73,95.2,37,-3.13,260,NA
VCU,2670,Rams,VCU,VCU,VCU Rams,VCU,https://a.espncdn.com/i/teamlogos/ncaa/500/2670.png,https://a.espncdn.com/i/teamlogos/ncaa/500-dark/2670.png,-77.53823,37.57557,Atlantic 10 Conference,#929292,#edb71d,2021,48,A10,19-7,15.04,105.2,122,90.2,14,69.6,107,0.035,97,8.57,97,106.5,93,98,99,5.66,124,10
Vermont,261,Catamounts,Vermont,UVM,Vermont Catamounts,Vermont,https://a.espncdn.com/i/teamlogos/ncaa/500/261.png,https://a.espncdn.com/i/teamlogos/ncaa/500-dark/261.png,-73.2229,44.4844,America East Conference,#013C24,#ffc72c,2021,133,AE,10-5,3.22,105.5,118,102.2,177,66.4,267,-0.069,313,-7.92,332,96.4,337,104.3,274,-99,331,NA
Villanova,222,Wildcats,Villanova,VILL,Villanova Wildcats,Villanova,https://a.espncdn.com/i/teamlogos/ncaa/500/222.png,https://a.espncdn.com/i/teamlogos/ncaa/500-dark/222.png,-75.34463,40.03817,Big East Conference,#123d7C,#f0f0f0,2021,12,BE,18-7,23.02,119,6,96,66,64.2,336,-0.007,200,13.66,47,109.3,51,95.7,50,8.12,89,5
Virginia,258,Cavaliers,Virginia,UVA,Virginia Cavaliers,Virginia,https://a.espncdn.com/i/teamlogos/ncaa/500/258.png,https://a.espncdn.com/i/teamlogos/ncaa/500-dark/258.png,-78.49833,38.03339,Atlantic Coast Conference,#f84c1e,#ffffff,2021,19,ACC,18-7,21.42,114.7,17,93.3,36,59.9,357,0.025,118,12.05,69,109.8,40,97.8,96,0.24,211,4
VMI,2678,Keydets,VMI,VMI,VMI Keydets,VMI,https://a.espncdn.com/i/teamlogos/ncaa/500/2678.png,https://a.espncdn.com/i/teamlogos/ncaa/500-dark/2678.png,-79.3738,37.8386,Southern Conference,#E52D37,#eec52b,2021,153,SC,13-12,1.09,107.8,88,106.7,269,69.9,89,-0.048,279,2.95,153,104.6,140,101.7,169,5.01,136,NA
Wagner,2681,Seahawks,Wagner,WAG,Wagner Seahawks,Wagner,https://a.espncdn.com/i/teamlogos/ncaa/500/2681.png,https://a.espncdn.com/i/teamlogos/ncaa/500-dark/2681.png,-74.0775,40.62167,Northeast Conference,#00483A,#ffffff,2021,224,NEC,13-7,-5.72,100.8,201,106.5,265,65.5,304,0.068,46,-8.56,336,97.8,320,106.4,340,19.76,11,NA
Wake Forest,154,Demon Deacons,Wake Forest,WAKE,Wake Forest Demon Deacons,Wake Forest,https://a.espncdn.com/i/teamlogos/ncaa/500/154.png,https://a.espncdn.com/i/teamlogos/ncaa/500-dark/154.png,-80.27727,36.13347,Atlantic Coast Conference,#9E7E38,#000000,2021,175,ACC,6-16,-0.64,101.3,191,101.9,169,67,241,-0.109,345,13.51,48,110.4,30,96.9,78,-17.91,327,NA
Washington,264,Huskies,Washington,WASH,Washington Huskies,Washington,https://a.espncdn.com/i/teamlogos/ncaa/500/264.png,https://a.espncdn.com/i/teamlogos/ncaa/500-dark/264.png,-122.31256,47.65655,Pac-12 Conference,#2B2F64,#e8e3d3,2021,129,P12,5-21,3.65,104,135,100.4,134,71,53,-0.061,300,17.97,8,112,8,94,11,11.85,45,NA
Washington State,265,Cougars,Washington St,WSU,Washington State Cougars,Washington St,https://a.espncdn.com/i/teamlogos/ncaa/500/265.png,https://a.espncdn.com/i/teamlogos/ncaa/500-dark/265.png,-77.47394,38.3008,Pac-12 Conference,#94022a,#6a747c,NA,NA,NA,NA,NA,NA,NA,NA,NA,NA,NA,NA,NA,NA,NA,NA,NA,NA,NA,NA,NA,NA
Weber State,2692,Wildcats,Weber State,WEB,Weber State Wildcats,Weber State,https://a.espncdn.com/i/teamlogos/ncaa/500/2692.png,https://a.espncdn.com/i/teamlogos/ncaa/500-dark/2692.png,-111.99084,41.2461,Big Sky Conference,#18005a,#ebebeb,NA,NA,NA,NA,NA,NA,NA,NA,NA,NA,NA,NA,NA,NA,NA,NA,NA,NA,NA,NA,NA,NA
West Virginia,277,Mountaineers,West Virginia,WVU,West Virginia Mountaineers,West Virginia,https://a.espncdn.com/i/teamlogos/ncaa/500/277.png,https://a.espncdn.com/i/teamlogos/ncaa/500-dark/277.png,-79.9559,39.62953,Big 12 Conference,#FFC600,#eaaa00,2021,23,B12,19-10,20.51,116.8,12,96.3,70,69.2,122,-0.056,294,15.18,31,109.6,45,94.4,20,13.77,29,3
Western Carolina,2717,Catamounts,W Carolina,WCU,Western Carolina Catamounts,W Carolina,https://a.espncdn.com/i/teamlogos/ncaa/500/2717.png,https://a.espncdn.com/i/teamlogos/ncaa/500-dark/2717.png,-83.18181,35.31093,Southern Conference,#492F91,#bf9e70,2021,241,SC,11-16,-7.07,99.9,220,106.9,272,70.5,77,0.031,105,1.92,166,104.4,146,102.5,197,-3.78,269,NA
Western Illinois,2710,Leathernecks,W Illinois,WIU,Western Illinois Leathernecks,W Illinois,https://a.espncdn.com/i/teamlogos/ncaa/500/2710.png,https://a.espncdn.com/i/teamlogos/ncaa/500-dark/2710.png,-90.68374,40.46421,The Summit League[k],#4e1e8a,#ffc90a,2021,290,Sum,7-15,-11.43,98,252,109.4,308,71.5,44,-0.01,205,-0.67,198,104,158,104.7,298,-0.24,219,NA
Western Kentucky,98,Hilltoppers,Western KY,WKU,Western Kentucky Hilltoppers,Western KY,https://a.espncdn.com/i/teamlogos/ncaa/500/98.png,https://a.espncdn.com/i/teamlogos/ncaa/500-dark/98.png,-86.45166,36.98754,Conference USA,#F32026,#b3b5b8,2021,99,CUSA,21-8,8.57,106.6,102,98,97,67.4,219,0.083,27,4.32,133,103.6,166,99.3,120,10.37,61,3
Western Michigan,2711,Broncos,W Michigan,WMU,Western Michigan Broncos,W Michigan,https://a.espncdn.com/i/teamlogos/ncaa/500/2711.png,https://a.espncdn.com/i/teamlogos/ncaa/500-dark/2711.png,-85.60056,42.2906,Mid-American Conference,#B59966,#bfa979,2021,274,MAC,5-16,-10.48,94.7,294,105.2,233,66,283,-0.036,257,4.37,131,106.4,95,102.1,180,5.17,132,NA
Wichita State,2724,Shockers,Wichita State,WICH,Wichita State Shockers,Wichita State,https://a.espncdn.com/i/teamlogos/ncaa/500/2724.png,https://a.espncdn.com/i/teamlogos/ncaa/500-dark/2724.png,-97.3156,37.7016,American Athletic Conference,#0d0a03,#ffc41e,NA,NA,NA,NA,NA,NA,NA,NA,NA,NA,NA,NA,NA,NA,NA,NA,NA,NA,NA,NA,NA,NA
William & Mary,2729,Tribe,William & Mary,W&M,William & Mary Tribe,William & Mary,https://a.espncdn.com/i/teamlogos/ncaa/500/2729.png,https://a.espncdn.com/i/teamlogos/ncaa/500-dark/2729.png,-76.70746,37.2707,Colonial Athletic Association,#103217,#f6b220,2021,302,CAA,7-10,-12.46,94.8,291,107.3,278,68.1,182,0.106,14,-0.79,201,103.1,179,103.8,257,0.32,210,NA
Winthrop,2737,Eagles,Winthrop,WIN,Winthrop Eagles,Winthrop,https://a.espncdn.com/i/teamlogos/ncaa/500/2737.png,https://a.espncdn.com/i/teamlogos/ncaa/500-dark/2737.png,-73.64372,40.7412,Big South Conference,#9e0b0e,#fdb41e,2021,101,BSth,23-2,8.48,105,124,96.5,71,73.1,14,0.036,96,-5.62,302,99.6,281,105.2,311,4.18,149,12
